Block Number,Station Number,ICAO Location,Place Name,State,error,Country Name,Continent,Longitude,Latitude,European Region,district_level,postcode,county
0,0,PABL,"Buckland, Buckland Airport",AK,,United States,4,-161.151944444444,65.9822222222222,,,,Northwest Arctic Borough
1,1,ENJA,Jan Mayen,,,Norway,6,-8.66666666666667,70.9333333333333,,,,
1,2,----,Grahuken,,,Norway,6,14.4666666666667,79.7833333333333,,,,
1,3,----,Hornsund,,,Norway,6,15.5,77,,,,
1,4,ENAS,Ny-Alesund Ii,,,Norway,6,11.9333333333333,78.9166666666667,,,,
1,6,----,Edgeoya,,,Norway,6,22.7833333333333,78.2333333333333,,,,
1,7,----,Ny Alesund,,,Norway,6,11.9333333333333,78.9166666666667,,,,
1,8,ENSB,Svalbard Lufthavn,,,Norway,6,15.4666666666667,78.25,,,,
1,9,----,Phippsoya,,,Norway,6,20.8666666666667,80.6833333333334,,,,
1,10,ENAN,Andoya,,,Norway,6,16.15,69.3,,,,
1,11,----,Kvitoya,,,Norway,6,31.4,80.1,,,,
1,15,----,Hekkingen Fyr,,,Norway,6,17.8333333333333,69.6,,,,
1,16,----,Senja-Grasmyrskogen,,,Norway,6,17.7666666666667,69.2833333333333,,,,
1,23,ENDU,Bardufoss,,,Norway,6,18.5333333333333,69.0666666666667,,,,
1,25,ENTC,Tromso / Langnes,,,Norway,6,18.9166666666667,69.6833333333333,,,,
1,26,----,Tromso,,,Norway,6,18.9333333333333,69.65,,,,
1,28,ENBJ,Bjornoya,,,Norway,6,19.0166666666667,74.5166666666667,,,,
1,33,----,Torsvag Fyr,,,Norway,6,19.5,70.25,,,,
1,34,----,Fugloykalven Fyr,,,Norway,6,20.15,70.3166666666667,,,,
1,35,----,Oteren,,,Norway,6,19.8833333333333,69.25,,,,
1,41,----,Nodreisa-Oyeng,,,Norway,6,21.0166666666667,69.7333333333333,,,,
1,43,----,Loppa,,,Norway,6,21.4666666666667,70.3333333333333,,,,
1,45,----,Nordstraum I Kvaenangen,,,Norway,6,21.8833333333333,69.8333333333333,,,,
1,46,ENSR,Sorkjosen,,,Norway,6,20.9666666666667,69.7833333333333,,,,
1,47,ENKA,Kautokeino,,,Norway,6,23.0333333333333,69,,,,
1,49,ENAT,Alta Lufthavn,,,Norway,6,23.3666666666667,69.9833333333333,,,,
1,51,----,Suolovuopmi,,,Norway,6,23.5333333333333,69.5833333333333,,,,
1,52,ENHF,Hammerfest,,,Norway,6,23.6666666666667,70.6666666666667,,,,
1,55,----,Fruholmen Fyr,,,Norway,6,24,71.1,,,,
1,57,----,Cuovddatmohkki,,,Norway,6,24.4333333333333,69.3666666666667,,,,
1,59,ENNA,Banak,,,Norway,6,24.9833333333333,70.0666666666667,,,,
1,62,ENHO,Hopen,,,Norway,6,25.0666666666667,76.5,,,,
1,65,----,Karasjok,,,Norway,6,25.5,69.4666666666667,,,,
1,66,----,Helnes Fyr,,,Norway,6,26.2333333333333,71.0666666666667,,,,
1,68,ENHV,Honningsvag / Valan,,,Norway,6,25.9833333333333,71.0166666666667,,,,
1,74,ENMH,Mehamn,,,Norway,6,27.8333333333333,71.0333333333333,,,,
1,75,----,Rustefjelbma,,,Norway,6,28.2,70.4,,,,
1,78,----,Sletnes Fyr,,,Norway,6,28.2333333333333,71.0833333333333,,,,
1,83,ENBV,Berlevag,,,Norway,6,29.0333333333333,70.8666666666667,,,,
1,88,ENVD,Vadso,,,Norway,6,29.85,70.0666666666667,,,,
1,89,ENKR,Kirkenes Lufthavn,,,Norway,6,29.9,69.7333333333333,,,,
1,92,----,Makkaur Fyr,,,Norway,6,30.0833333333333,70.7,,,,
1,97,ENSS,Svartnes,,,Norway,6,31.05,70.35,,,,
1,98,----,Vardo,,,Norway,6,31.1,70.3666666666667,,,,
1,102,----,Sklinna Fyr,,,Norway,6,11,65.2,,,,
1,103,----,Leka,,,Norway,6,11.7,65.1,,,,
1,106,----,Rost Ii,,,Norway,6,12.0833333333333,67.5,,,,
1,107,ENRS,Rost Flyplass,,,Norway,6,12.1,67.5166666666667,,,,
1,108,----,Vega-Vallsjo,,,Norway,6,11.85,65.7,,,,
1,110,----,Ytterholmen Fyr,,,Norway,6,11.6833333333333,66,,,,
1,112,ENBN,Bronnoysund / Bronnoy,,,Norway,6,12.2166666666667,65.4666666666667,,,,
1,115,----,Myken,,,Norway,6,12.4833333333333,66.75,,,,
1,116,ENST,Sandnessjoen / Stokka,,,Norway,6,12.4666666666667,65.9666666666667,,,,
1,121,----,Nord-Solvaer,,,Norway,6,12.6166666666667,66.4,,,,
1,122,ENMS,Mosjoen Kjaerstad,,,Norway,6,13.1333333333333,65.8,,,,
1,134,----,Majavatn Iii,,,Norway,6,13.4166666666667,65.1833333333333,,,,
1,137,----,Stott,,,Norway,6,13.45,66.9333333333333,,,,
1,138,----,Tennholmen Fyr,,,Norway,6,13.5,67.3,,,,
1,141,ENLK,Leknes,,,Norway,6,13.6166666666667,68.15,,,,
1,147,----,Susendal-Bjormo,,,Norway,6,14.0166666666667,65.5166666666667,,,,
1,149,----,Rana-Basmoen,,,Norway,6,14.1,66.3333333333333,,,,
1,151,ENRA,Mo I Rana / Rossvoll,,,Norway,6,14.3,66.3666666666667,,,,
1,152,ENBO,Bodo Vi,,,Norway,6,14.3666666666667,67.2666666666667,,,,
1,154,----,Litloy Fyr,,,Norway,6,14.3,68.5833333333333,,,,
1,155,----,Bo I Vesteralen Ii,,,Norway,6,14.4666666666667,68.6333333333333,,,,
1,160,----,Skrova Fyr,,,Norway,6,14.65,68.15,,,,
1,161,ENSH,Svolvaer / Helle,,,Norway,6,14.6666666666667,68.25,,,,
1,162,ENSK,Storkmarknes / Skagen,,,Norway,6,15.0166666666667,68.5833333333333,,,,
1,167,----,Sortland,,,Norway,6,15.4166666666667,68.7,,,,
1,169,----,Saltdal,,,Norway,6,15.3166666666667,66.85,,,,
1,172,----,Finnoy I Hamaroy,,,Norway,6,15.6166666666667,68,,,,
1,183,ENEV,Evenes,,,Norway,6,16.6833333333333,68.5166666666667,,,,
1,193,----,Narvik / Framnes,,,Norway,6,17.4,68.4333333333334,,,,
1,194,ENNK,Narvik Iii,,,Norway,6,17.5,68.4666666666667,,,,
1,196,----,Tennevoll,,,Norway,6,17.8166666666667,68.75,,,,
1,199,----,Sihcajavri,,,Norway,6,23.5333333333333,68.75,,,,
1,203,----,Krakenes,,,Norway,6,4.98333333333333,62.0333333333333,,,,
1,205,----,Svinoy Fyr,,,Norway,6,5.26666666666667,62.3333333333333,,,,
1,209,ENOV,Orsta-Volda / Hovden,,,Norway,6,6.06666666666667,62.1833333333333,,,,
1,210,ENAL,Alesund / Vigra,,,Norway,6,6.11666666666667,62.5666666666667,,,,
1,212,----,Ona Ii,,,Norway,6,6.53333333333333,62.8666666666667,,,,
1,217,ENML,Molde / Aro,,,Norway,6,7.26666666666667,62.75,,,,
1,218,----,Tafjord,,,Norway,6,7.41666666666667,62.2333333333333,,,,
1,223,ENKB,Kristiansund / Kvernberget,,,Norway,6,7.83333333333333,63.1166666666667,,,,
1,224,----,Skalmen Fyr,,,Norway,6,7.75,63.4666666666667,,,,
1,227,----,Tingvoll-Hanem,,,Norway,6,8.3,62.8333333333333,,,,
1,228,----,Sula,,,Norway,6,8.46666666666667,63.85,,,,
1,231,----,Lesjaskog,,,Norway,6,8.36666666666667,62.2333333333333,,,,
1,232,----,Vinjeora Ii,,,Norway,6,9,63.2,,,,
1,237,----,Fokstua Ii,,,Norway,6,9.28333333333333,62.15,,,,
1,238,----,Fokstua Ii,,,Norway,6,9.28333333333333,62.1166666666667,,,,
1,240,----,Halten Fyr,,,Norway,6,9.41666666666667,64.1666666666667,,,,
1,241,ENOL,Orland Iii,,,Norway,6,9.6,63.7,,,,
1,245,----,Oppdal-Bjorke,,,Norway,6,9.68333333333333,62.6,,,,
1,252,----,Berkak-Lyngholt,,,Norway,6,10.0166666666667,62.8166666666667,,,,
1,259,----,Buholmrasa Fyr,,,Norway,6,10.45,64.4,,,,
1,262,----,Nordoyan Fyr,,,Norway,6,10.55,64.8,,,,
1,265,----,Tynset Ii,,,Norway,6,10.7666666666667,62.2666666666667,,,,
1,271,ENVA,Trondheim / Vaernes,,,Norway,6,10.9333333333333,63.4666666666667,,,,
1,274,----,Selbu-Stubbe,,,Norway,6,11.1166666666667,63.2,,,,
1,277,----,Steinkjer,,,Norway,6,11.45,64.0166666666667,,,,
1,278,----,Verdal-Reppe,,,Norway,6,11.6666666666667,63.7833333333333,,,,
1,280,----,Namdalseid,,,Norway,6,11.2,64.25,,,,
1,282,ENRM,Rorvik / Ryum,,,Norway,6,11.15,64.8333333333333,,,,
1,288,----,Roros,,,Norway,6,11.3833333333333,62.5666666666667,,,,
1,289,ENRO,Roros Lufthavn,,,Norway,6,11.35,62.5833333333333,,,,
1,290,ENNM,Namsos Lufthavn,,,Norway,6,11.5833333333333,64.4666666666667,,,,
1,292,----,Maraker-Utsyn,,,Norway,6,11.75,63.4166666666667,,,,
1,298,----,Nordli-Holand,,,Norway,6,13.7166666666667,64.45,,,,
1,304,----,Ytteroyane Fyr,,,Norway,6,4.68333333333333,61.5666666666667,,,,
1,306,----,Hellisoy Fyr,,,Norway,6,4.71666666666667,60.75,,,,
1,310,ENFL,Floro,,,Norway,6,5.03333333333333,61.5833333333333,,,,
1,311,ENBR,Bergen / Flesland,,,Norway,6,5.23333333333333,60.2833333333333,,,,
1,317,----,Bergen / Florida,,,Norway,6,5.33333333333333,60.3833333333333,,,,
1,319,----,Takle,,,Norway,6,5.38333333333333,61.0333333333333,,,,
1,320,ENSD,Sandane / Anda,,,Norway,6,6.11666666666667,61.8333333333333,,,,
1,321,----,Stryn,,,Norway,6,6.55,61.9,,,,
1,322,----,Forde-Tefre,,,Norway,6,5.91666666666667,61.4666666666667,,,,
1,323,----,Forde / Bringelandsasen,,,Norway,6,5.76666666666667,61.4,,,,
1,325,----,Modalen Ii,,,Norway,6,5.95,60.8333333333333,,,,
1,328,----,Kvamskogen,,,Norway,6,5.91666666666667,60.4,,,,
1,330,----,Omastrand,,,Norway,6,5.98333333333333,60.2166666666667,,,,
1,336,ENBM,Voss-Bo,,,Norway,6,6.5,60.65,,,,
1,338,----,Vangsnes,,,Norway,6,6.65,61.1666666666667,,,,
1,341,----,Eidfjord-Bu,,,Norway,6,6.86666666666667,60.4666666666667,,,,
1,344,----,Reimegrend,,,Norway,6,6.75,60.6833333333333,,,,
1,347,ENSG,Sogndal / Haukasen,,,Norway,6,7.13333333333333,61.15,,,,
1,350,----,Finsevatn,,,Norway,6,7.53333333333333,60.6,,,,
1,355,----,Laerdal-Tonjum,,,Norway,6,7.51666666666667,61.0666666666667,,,,
1,357,----,Fortun,,,Norway,6,7.7,61.5,,,,
1,360,----,Brata,,,Norway,6,7.86666666666667,61.9,,,,
1,364,----,Geilo-Geilostolen,,,Norway,6,8.21666666666667,60.5166666666667,,,,
1,366,----,Sognefjell,,,Norway,6,8,61.5666666666667,,,,
1,367,----,Fagernes,,,Norway,6,9.23333333333333,60.9833333333333,,,,
1,368,ENFG,Fagernes Leirin,,,Norway,6,9.3,61,,,,
1,370,----,Skabu-Storslaen,,,Norway,6,9.38333333333333,61.5166666666667,,,,
1,372,----,Nesbyen-Skoglund,,,Norway,6,9.13333333333333,60.5666666666667,,,,
1,374,----,Vest-Torpa Ii,,,Norway,6,10.0333333333333,60.9333333333333,,,,
1,375,----,Kvitfjell,,,Norway,6,9.96666666666667,61.4833333333333,,,,
1,378,----,Lillehammer-Saetherengen,,,Norway,6,10.4666666666667,61.1,,,,
1,379,----,Sor-Nesset,,,Norway,6,10.15,61.8833333333333,,,,
1,380,----,Venabu,,,Norway,6,10.1166666666667,61.65,,,,
1,383,----,Evenstad-Overenget,,,Norway,6,11.15,61.4,,,,
1,384,ENGM,Oslo / Gardermoen,,,Norway,6,11.0833333333333,60.2,,,,
1,389,----,Haugedalshogda,,,Norway,6,11.45,61.1666666666667,,,,
1,391,----,Flisa,,,Norway,6,12.0166666666667,60.6166666666667,,,,
1,393,----,Drevsjo,,,Norway,6,12.05,61.8833333333333,,,,
1,397,----,Trysil Vegstasjon,,,Norway,6,12.2666666666667,61.3,,,,
1,400,----,Ekofisk,,,Norway,6,3.21666666666667,56.5333333333333,,,,
1,403,----,Utsira Fyr,,,Norway,6,4.88333333333333,59.3,,,,
1,406,----,Slatteroy Fyr,,,Norway,6,5.06666666666667,59.9166666666667,,,,
1,408,ENHD,Haugesund / Karmoy,,,Norway,6,5.21666666666667,59.35,,,,
1,412,----,Obrestad,,,Norway,6,5.56666666666667,58.65,,,,
1,415,ENZV,Stavanger / Sola,,,Norway,6,5.63333333333333,58.8833333333333,,,,
1,417,----,Nedre Vats,,,Norway,6,5.75,59.4833333333333,,,,
1,423,----,Fister-Tonnevik,,,Norway,6,6.05,59.1666666666667,,,,
1,424,----,Sauda,,,Norway,6,6.36666666666667,59.65,,,,
1,425,----,Ualand-Bjuland,,,Norway,6,6.35,58.55,,,,
1,426,----,Lista Fyr,,,Norway,6,6.56666666666667,58.1166666666667,,,,
1,427,----,Lista Fyr,,,Norway,6,6.56666666666667,58.1166666666667,,,,
1,428,ENLI,Lista Flyplass,,,Norway,6,6.63333333333333,58.1,,,,
1,432,----,Sirdal-Tjorhom,,,Norway,6,6.85,58.8833333333333,,,,
1,433,----,Midtlaeger,,,Norway,6,6.98333333333333,59.8333333333333,,,,
1,434,----,Vaagsli,,,Norway,6,7.36666666666667,59.7666666666667,,,,
1,436,----,Lindesnes Fyr,,,Norway,6,7.05,57.9833333333333,,,,
1,439,----,Konsmo-Hoyland,,,Norway,6,7.31666666666667,58.25,,,,
1,441,----,Hovden-Lundane,,,Norway,6,7.38333333333333,59.5833333333333,,,,
1,442,----,Byglandsfjord-Solbakken,,,Norway,6,7.8,58.6666666666667,,,,
1,446,----,Oyfjell-Trovatn,,,Norway,6,8.2,59.5666666666667,,,,
1,448,----,Oksoy Fyr,,,Norway,6,8.05,58.0666666666667,,,,
1,450,----,Mosstrand Ii,,,Norway,6,8.18333333333333,59.8333333333333,,,,
1,452,ENCN,Kristiansand / Kjevik,,,Norway,6,8.08333333333333,58.2,,,,
1,453,----,Kristiansand / Kjevik,,,Norway,6,8.08333333333333,58.2166666666667,,,,
1,455,----,Tveitsund,,,Norway,6,8.51666666666667,59.0333333333333,,,,
1,459,----,Nelaug,,,Norway,6,8.63333333333333,58.65,,,,
1,465,----,Torungen Fyr,,,Norway,6,8.8,58.4,,,,
1,467,----,Lyngor Fyr,,,Norway,6,9.15,58.6333333333333,,,,
1,474,----,Lyngdal I Numedal,,,Norway,6,9.53333333333333,59.9,,,,
1,475,ENSN,Skien-Geiteryggen,,,Norway,6,9.56666666666667,59.1833333333333,,,,
1,476,----,Jomfruland Fyr,,,Norway,6,9.55,58.85,,,,
1,477,----,Kongsberg Iv,,,Norway,6,9.65,59.6666666666667,,,,
1,482,----,Ferder Fyr,,,Norway,6,10.5333333333333,59.0333333333333,,,,
1,483,ENTO,Torp,,,Norway,6,10.2666666666667,59.2,,,,
1,488,ENFB,Oslo / Fornebu,,,Norway,6,10.6333333333333,59.9,,,,
1,490,----,Tryvasshogda Ii,,,Norway,6,10.6833333333333,59.9833333333333,,,,
1,492,----,Oslo-Blindern,,,Norway,6,10.7166666666667,59.95,,,,
1,494,ENRY,Rygge,,,Norway,6,10.7833333333333,59.3833333333333,,,,
1,495,----,Stromtangen Fyr,,,Norway,6,10.8333333333333,59.15,,,,
1,496,----,Holand-Loken,,,Norway,6,11.4833333333333,59.8166666666667,,,,
1,497,----,Prestebakke,,,Norway,6,11.5333333333333,59,,,,
1,498,----,Magnor,,,Norway,6,12.2166666666667,59.9666666666667,,,,
2,12,----,Ritsem,,,Sweden,6,17.4666666666667,67.7333333333333,,,,Gällivare Municipality
2,20,----,Katterjakk,,,Sweden,6,18.1666666666667,68.4166666666667,,,,Kiruna Municipality
2,22,----,Abisko,,,Sweden,6,18.8166666666667,68.35,,,,Kiruna Municipality
2,32,----,Tornetrask Lake,,,Sweden,6,19.7166666666667,68.2166666666667,,,,Kiruna Municipality
2,36,----,Nikkaluokta,,,Sweden,6,19.0333333333333,67.85,,,,Gällivare Municipality
2,43,----,Esrange,,,Sweden,6,21.0666666666667,67.9333333333333,,,,Kiruna Municipality
2,44,ESNQ,Kiruna Airport,,,Sweden,6,20.3333333333333,67.8166666666667,,,,Kiruna Municipality
2,45,----,Kiruna Geofysiska,,,Sweden,6,20.4333333333333,67.8333333333333,,,,Kiruna Municipality
2,49,ESNG,Gallivare,,,Sweden,6,20.65,67.15,,,,Gällivare Municipality
2,80,----,Karesuando,,,Sweden,6,22.5,68.45,,,,Tunturi-Lappi Seutukunta
2,96,----,Pajala,,,Sweden,6,23.4,67.2166666666667,,,,Pajala Municipality
2,103,----,Hemavan-Skorvfjallet,,,Sweden,6,15.0666666666667,65.7833333333333,,,,Storuman Municipality
2,104,----,Hemavan,,,Sweden,6,15.1,65.8166666666667,,,,Storuman Municipality
2,105,----,Abelvattnet,,,Sweden,6,14.9833333333333,65.5333333333333,,,,Storuman Municipality
2,118,----,Dikanas-Skansnas,,,Sweden,6,16.0333333333333,65.3166666666667,,,,Vilhelmina Municipality
2,120,----,Kvikkjokk,,,Sweden,6,17.75,66.95,,,,Jokkmokk Municipality
2,124,----,Arjeplog,,,Sweden,6,17.8666666666667,66.0333333333333,,,,
2,128,ESPD,Gunnarn,,,Sweden,6,17.7,64.9666666666667,,,,Storuman Municipality
2,141,----,Tjakaape,,,Sweden,6,19.2166666666667,66.3166666666667,,,,Jokkmokk Municipality
2,142,ESNJ,Jokkmokk,,,Sweden,6,19.65,66.6333333333333,,,,Jokkmokk Municipality
2,143,----,Paljamyren,,,Sweden,6,19.1333333333333,66.2166666666667,,,,Jokkmokk Municipality
2,145,----,Tellejaur,,,Sweden,6,19.6333333333333,66.15,,,,Jokkmokk Municipality
2,154,ESPE,Vidsel,,,Sweden,6,20.1333333333333,65.8666666666667,,,,Arvidsjaur Municipality
2,159,----,Fallfors,,,Sweden,6,20.7666666666667,65.1166666666667,,,,Skellefteå Municipality
2,160,----,Nattavaara,,,Sweden,6,21.05,66.75,,,,Gällivare Municipality
2,169,----,Heden,,,Sweden,6,21.45,65.8666666666667,,,,Boden Municipality
2,171,----,Boden,,,Sweden,6,21.7,65.8166666666667,,,,Boden Municipality
2,176,----,Ronnskar,,,Sweden,6,21.5666666666667,65.0333333333333,,,,
2,181,----,Svartbyn,,,Sweden,6,22.85,66.2666666666667,,,,Överkalix Municipality
2,183,----,Lulea Sol,,,Sweden,6,22.1333333333333,65.55,,,,Luleå Municipality
2,185,----,Lulea / Kallax,,,Sweden,6,22.1333333333333,65.55,,,,Luleå Municipality
2,186,ESPA,Lulea / Kallax,,,Sweden,6,22.1333333333333,65.55,,,,Luleå Municipality
2,188,----,Rodkallen,,,Sweden,6,22.3833333333333,65.3166666666667,,,,
2,196,----,Haparanda,,,Sweden,6,24.15,65.8333333333333,,,,
2,206,----,Storlien-Visjovalen,,,Sweden,6,12.1166666666667,63.3,,,,Åre Municipality
2,209,----,Sylarna,,,Sweden,6,12.2666666666667,63.05,,,,Åre Municipality
2,215,----,Areskutan,,,Sweden,6,13.0833333333333,63.4333333333333,,,,Åre Municipality
2,221,----,Korsvattnet,,,Sweden,6,13.5,63.8333333333333,,,,Krokom Municipality
2,222,----,Gaddede,,,Sweden,6,14.1333333333333,64.5,,,,Strömsund Municipality
2,226,ESPC,Ostersund / Froson,,,Sweden,6,14.5,63.1833333333333,,,,
2,229,----,Ostersund Sol,,,Sweden,6,14.5,63.2,,,,Östersund Municipality
2,244,----,Junsele,,,Sweden,6,16.8666666666667,63.7,,,,Sollefteå Municipality
2,245,----,Vilhelmina,,,Sweden,6,16.85,64.5833333333333,,,,Vilhelmina Municipality
2,247,----,Krangede,,,Sweden,6,16.1666666666667,63.15,,,,Ragunda Municipality
2,248,----,Krangede,,,Sweden,6,16.1666666666667,63.1666666666667,,,,Ragunda Municipality
2,259,ESNK,Kramfors Flygplats,,,Sweden,6,17.7666666666667,63.05,,,,Kramfors Municipality
2,267,ESNO,Ornskoldsvik Airport,,,Sweden,6,18.9666666666667,63.4,,,,Örnsköldsviks
2,269,----,Skagsudde,,,Sweden,6,19.0166666666667,63.1833333333333,,,,
2,274,----,Vindeln,,,Sweden,6,19.7166666666667,64.2166666666667,,,,Vindeln Municipality
2,283,----,Umea Robacksdalen,,,Sweden,6,20.25,63.8166666666667,,,,Umeå Municipality
2,284,----,Jarnasklubb,,,Sweden,6,19.6833333333333,63.4333333333333,,,,
2,286,ESNU,Umea Flygplats,,,Sweden,6,20.2833333333333,63.8,,,,Umeå Municipality
2,288,----,Holmogadd,,,Sweden,6,20.7666666666667,63.6,,,,Umeå Municipality
2,293,ESNS,Skelleftea Airport,,,Sweden,6,21.0833333333333,64.6333333333333,,,,Skellefteå Municipality
2,296,----,Bjuroklubb,,,Sweden,6,21.5833333333333,64.4833333333333,,,,
2,307,----,Idre,,,Sweden,6,12.85,61.9,,,,Älvdalen Municipality
2,308,----,Tannas,,,Sweden,6,12.6666666666667,62.45,,,,Härjedalen Municipality
2,316,----,Sarna,,,Sweden,6,13.1666666666667,61.7,,,,Älvdalen Municipality
2,318,----,Tandadalen,,,Sweden,6,13.0166666666667,61.1666666666667,,,,Malung-Sälen Municipality
2,323,----,Klovsjo,,,Sweden,6,14.2,62.5333333333333,,,,Berg Municipality
2,324,----,Sveg,,,Sweden,6,14.3666666666667,62.0333333333333,,,,Härjedalen Municipality
2,338,----,Edsbyn,,,Sweden,6,15.7166666666667,61.3666666666667,,,,Ovanåker Municipality
2,355,----,Kuggoren,,,Sweden,6,17.5333333333333,61.7,,,,
2,365,----,Sundvall-Harnlsand Flygplats,,,Sweden,6,17.45,62.5333333333333,,,,Timrå Municipality
2,366,ESNN,Sundsvall-Harnosand Flygplats,,,Sweden,6,17.45,62.5333333333333,,,,Timrå Municipality
2,368,----,Bramon,,,Sweden,6,17.75,62.2166666666667,,,,
2,376,ESCL,Soderhamn,,,Sweden,6,17.1,61.2666666666667,,,,Söderhamns
2,382,----,Lungo,,,Sweden,6,18.0666666666667,62.6166666666667,,,,
2,400,----,Ostmark,,,Sweden,6,12.65,60.35,,,,Torsby Municipality
2,408,----,Blomskog,,,Sweden,6,12.0833333333333,59.2166666666667,,,,Bengtsfors Municipality
2,410,----,Malung,,,Sweden,6,13.7166666666667,60.6833333333333,,,,Malung-Sälen Municipality
2,415,----,Karlstad Sol,,,Sweden,6,13.4666666666667,59.3666666666667,,,,Karlstad Municipality
2,417,----,Naven,,,Sweden,6,13.1166666666667,58.7,,,,Lidköping Municipality
2,418,ESSQ,Karlstad Flygplats,,,Sweden,6,13.4666666666667,59.3666666666667,,,,Karlstad Municipality
2,424,----,Stalldalen,,,Sweden,6,14.95,59.95,,,,Ljusnarsberg Municipality
2,432,----,Orebro,,,Sweden,6,15.05,59.2333333333333,,,,Örebro Municipality
2,433,----,Falun,,,Sweden,6,15.6666666666667,60.6166666666667,,,,Falun Municipality
2,435,ESSD,Borlange,,,Sweden,6,15.5166666666667,60.4333333333333,,,,Borlänge Municipality
2,443,ESSK,Gavle / Sandviken Air Force Base,,,Sweden,6,16.95,60.6,,,,Gävle Municipality
2,446,ESOW,Vasteras / Hasslo,,,Sweden,6,16.6333333333333,59.5833333333333,,,,Västerås Municipality
2,450,----,Eggegrund,,,Sweden,6,17.5666666666667,60.7333333333333,,,,
2,453,----,Gavle,,,Sweden,6,17.1666666666667,60.7166666666667,,,,Gävle Municipality
2,456,----,Films Kyrkby,,,Sweden,6,17.9,60.2333333333333,,,,Östhammar Municipality
2,458,ESCM,Uppsala,,,Sweden,6,17.6,59.8833333333333,,,,Upsala
2,460,ESSA,Stockholm / Arlanda,,,Sweden,6,17.95,59.65,,,,Sigtuna Municipality
2,464,ESSB,Stockholm / Bromma,,,Sweden,6,17.95,59.35,,,,Stockholm Municipality
2,476,----,Floda,,,Sweden,6,16.4,59.05,,,,Katrineholm Municipality
2,483,----,Stockholm Kth,,,Sweden,6,18.0666666666667,59.35,,,,Stockholm Municipality
2,485,----,Stockholm / Observatoriet,,,Sweden,6,18.1,59.5666666666667,,,,Vallentuna Municipality
2,487,----,Stavsnas,,,Sweden,6,18.7,59.3,,,,
2,488,----,Orskar,,,Sweden,6,18.3833333333333,60.5333333333333,,,,
2,489,----,Harsfjarden,,,Sweden,6,18.1166666666667,59.0666666666667,,,,
2,496,----,Svenska Hogarna,,,Sweden,6,19.5,59.45,,,,
2,499,----,Almagrundet,,,Sweden,6,19.1333333333333,59.15,,,,
2,500,----,Nordkoster,,,Sweden,6,11,58.9,,,,Strömstad Municipality
2,501,----,Vaderoarna,,,Sweden,6,11.0666666666667,58.5833333333333,,,,
2,505,----,Maseskar,,,Sweden,6,11.3333333333333,58.1,,,,
2,508,----,Maseskar Light House ,,,Sweden,6,11.35,58.1,,,,
2,512,ESGP,Goteborg / Save,,,Sweden,6,11.8833333333333,57.7833333333333,,,,Göteborg Municipality
2,513,----,Goteborg,,,Sweden,6,12,57.7,,,,Göteborg Municipality
2,516,----,Vinga,,,Sweden,6,11.6166666666667,57.6333333333333,,,,
2,517,----,Trubaduren,,,Sweden,6,11.6333333333333,57.6,,,,
2,518,----,Nidingen,,,Sweden,6,11.9,57.3,,,,
2,519,----,Ringhals,,,Sweden,6,12.1166666666667,57.2666666666667,,,,Varberg Municipality
2,520,ESIB,Satenas,,,Sweden,6,12.7,58.4333333333333,,,,
2,526,ESGG,Goteborg / Landvetter,,,Sweden,6,12.3,57.6666666666667,,,,Härryda Municipality
2,527,----,Goteborg / Landvetter,,,Sweden,6,12.3,57.6666666666667,,,,Härryda Municipality
2,535,ESGR,Skovde Flygplats,,,Sweden,6,13.9666666666667,58.45,,,,Skövde Municipality
2,536,----,Rangedala,,,Sweden,6,13.1666666666667,57.7833333333333,,,,Borås Municipality
2,545,----,Axstal,,,Sweden,6,14.5666666666667,58.5666666666667,,,,
2,550,ESGJ,Jonkoping Flygplats,,,Sweden,6,14.0833333333333,57.7666666666667,,,,Jönköping Municipality
2,556,ESMV,Hagshult,,,Sweden,6,14.1333333333333,57.3,,,,Värnamo Municipality
2,562,ESCF,Linkoping / Malmen,,,Sweden,6,15.5166666666667,58.4,,,,Linköping Municipality
2,564,----,Malexander,,,Sweden,6,15.2333333333333,58.0666666666667,,,,Boxholm Municipality
2,565,ESSF,Hultsfred Swedish Air Force Base ,,,Sweden,6,15.8333333333333,57.5166666666667,,,,Hultsfred Municipality
2,566,----,Malilla,,,Sweden,6,15.8333333333333,57.4,,,,Hultsfred Municipality
2,567,----,Landsort,,,Sweden,6,17.8666666666667,58.75,,,,Nynäshamn Municipality
2,569,----,Stavsjo,,,Sweden,6,16.3666666666667,58.7333333333333,,,,Nyköping Municipality
2,571,ESSP,Norrkoping,,,Sweden,6,16.15,58.5833333333333,,,,Norrköping Municipality
2,574,----,Smhi,,,Sweden,6,16.15,58.5833333333333,,,,Norrköping Municipality
2,575,----,Olands Norra Udde,,,Sweden,6,17.1,57.3666666666667,,,,
2,583,----,Gustaf Dalen,,,Sweden,6,17.4666666666667,58.6,,,,
2,584,----,Gotska Sandon,,,Sweden,6,19.2,58.4,,,,
2,586,----,Harstena,,,Sweden,6,17.0166666666667,58.25,,,,
2,590,ESSV,Visby Flygplats,,,Sweden,6,18.35,57.6666666666667,,,,Gotland Municipality
2,591,----,Visby Aerologiska Station,,,Sweden,6,18.35,57.65,,,,Gotland Municipality
2,599,----,Nasudden,,,Sweden,6,18.2166666666667,57.0666666666667,,,,Gotland Municipality
2,604,ESMT,Halmstad Swedish Air Force Base ,,,Sweden,6,12.8333333333333,56.6833333333333,,,,Halmstad Municipality
2,605,----,Hallands Vadero,,,Sweden,6,12.55,56.45,,,,Båstad Municipality
2,606,----,Kullen,,,Sweden,6,12.45,56.3,,,,
2,607,ESDB,Angelholm,,,Sweden,6,12.85,56.3,,,,Ängelholm Municipality
2,611,----,Helsingborg,,,Sweden,6,12.7666666666667,56.0333333333333,,,,Helsingborg Municipality
2,614,----,Oskarsgrundet,,,Sweden,6,12.85,55.6,,,,
2,616,----,Falsterbo,,,Sweden,6,12.8166666666667,55.3833333333333,,,,
2,620,----,Torup,,,Sweden,6,13.1,56.9666666666667,,,,Hylte Municipality
2,625,----,Skillinge,,,Sweden,6,14.3166666666667,55.4833333333333,,,,
2,626,----,Osby,,,Sweden,6,13.95,56.3666666666667,,,,Osby Municipality
2,627,----,Lund Lth,,,Sweden,6,13.2166666666667,55.7166666666667,,,,Lund Municipality
2,628,----,Hano,,,Sweden,6,14.85,56.0166666666667,,,,
2,630,ESDA,"Ljungbyhed, Ljungbyhed, SWE-AFB",,,Sweden,6,13.2072222222222,56.0852777777778,,,,Klippan Municipality
2,635,----,Malmo,,,Sweden,6,13.0166666666667,55.5833333333333,,,,Malmö Municipality
2,636,ESMS,Malmo / Sturup,,,Sweden,6,13.3666666666667,55.55,,,,Svedala Municipality
2,641,ESMX,Vaxjo,,,Sweden,6,14.8333333333333,56.85,,,,Växjö Municipality
2,644,----,Olands Sodra Udde,,,Sweden,6,16.4,56.2,,,,
2,651,ESMK,Kristianstad / Everod,,,Sweden,6,14.0833333333333,55.9166666666667,,,,Kristianstad Municipality
2,664,ESDF,Ronneby,,,Sweden,6,15.2833333333333,56.2666666666667,,,,Ronneby Municipality
2,666,----,Ungskar,,,Sweden,6,15.8,56.0333333333333,,,,
2,668,----,Kungsholms Fort,,,Sweden,6,15.5833333333333,56.0666666666667,,,,
2,670,----,Kalmar Flygplats,,,Sweden,6,16.3,56.6833333333333,,,,Kalmar Municipality
2,672,ESMQ,Kalmar,,,Sweden,6,16.3,56.7333333333333,,,,Kalmar Municipality
2,680,----,Hoburg,,,Sweden,6,18.15,56.9166666666667,,,,Gotland Municipality
2,681,----,Vreta Kloster,,,Sweden,6,15.5166666666667,58.4833333333333,,,,Linköping Municipality
2,685,----,Olands Sodra Grund,,,Sweden,6,16.6833333333333,56.0666666666667,,,,
2,801,----,Kilpisjarvi,,,Finland,6,20.7833333333333,69.05,,,,Tunturi-Lappi Seutukunta
2,805,----,Kevo,,,Finland,6,27.0333333333333,69.75,,,,Pohjois-Lappi Seutukunta
2,807,EFIV,Ivalo,,,Finland,6,27.4166666666667,68.6166666666667,,,,Pohjois-Lappi Seutukunta
2,823,----,Muonio,,,Finland,6,23.6833333333333,67.9666666666667,,,,Tunturi-Lappi Seutukunta
2,836,EFSO,Sodankyla,,,Finland,6,26.65,67.3666666666667,,,,Pohjois-Lappi Seutukunta
2,844,EFPE,Pello,,,Finland,6,24,66.8,,,,Torniolaakso Seutukunta
2,845,EFRO,Rovaniemi,,,Finland,6,25.8333333333333,66.5666666666667,,,,Rovaniemi Seutukunta
2,848,----,Salla,,,Finland,6,28.6666666666667,66.8166666666667,,,,Östra Lappland Kommun
2,863,----,Kemi I,,,Finland,6,24.1333333333333,65.4166666666667,,,,
2,864,EFKE,Kemi,,,Finland,6,24.5833333333333,65.7833333333333,,,,Kemi-Tornio Seutukunta
2,867,EFPU,Pudasjarvi,,,Finland,6,27.0166666666667,65.3666666666666,,,,Oulunkaari Seutukunta
2,869,EFKS,Kuusamo,,,Finland,6,29.1833333333333,65.9666666666667,,,,Koillismaa Seutukunta
2,874,EFHL,Hailuoto,,,Finland,6,24.8,65.0333333333333,,,,Uleåborg Kommun
2,875,EFOU,Oulu,,,Finland,6,25.3666666666667,64.9333333333334,,,,Uleåborg Kommun
2,879,EFSU,Suomussalmi,,,Finland,6,29.0166666666667,64.9,,,,Kehys-Kainuu Seutukunta
2,897,EFKI,Kajaani,,,Finland,6,27.6833333333333,64.2833333333333,,,,Kajana Kommun
2,901,----,Masskar,,,Finland,6,22.5833333333333,63.7333333333333,,,,
2,903,EFKK,Kruunupyy,,,Finland,6,23.15,63.7166666666667,,,,Jakobstadsregionen Seutukunta
2,905,----,Nivala,,,Finland,6,24.9666666666667,63.9166666666667,,,,Nivala-Haapajärvi Seutukunta
2,907,----,Ulkokalla,,,Finland,6,23.6,64.3333333333333,,,,
2,910,----,Valassaaret,,,Finland,6,21.0666666666667,63.4333333333333,,,,Vasa Kommun
2,911,EFVA,Vaasa,,,Finland,6,21.7666666666667,63.05,,,,Vasa Kommun
2,912,----,Vaasa,,,Finland,6,21.5833333333333,63.1,,,,
2,913,EFKA,Kauhava,,,Finland,6,23.0333333333333,63.1,,,,Seinäjoki Seutukunta
2,915,EFVI,Viitasaari,,,Finland,6,25.8666666666667,63.0833333333333,,,,Saarijärvi-Viitasaari Seutukunta
2,917,EFKU,Kuopio,,,Finland,6,27.8,63.0166666666667,,,,Kuopio Seutukunta
2,919,----,Ilomantsi,,,Finland,6,30.95,62.6833333333333,,,,Joensuu Seutukunta
2,921,----,Moikipaa,,,Finland,6,21.1,62.8833333333333,,,,
2,924,EFHT,Ahtari,,,Finland,6,24.2166666666667,62.5333333333333,,,,Kuusiokunnat Seutukunta
2,929,EFJO,Joensuu,,,Finland,6,29.6333333333333,62.6666666666667,,,,Joensuu Seutukunta
2,935,EFJY,Jyvaskyla,,,Finland,6,25.6833333333333,62.4,,,,Jyväskylä Seutukunta
2,942,----,Niinisalo,,,Finland,6,22.4666666666667,61.85,,,,Pohjois-Satakunta Seutukunta
2,944,EFTP,Tampere / Pirkkala,,,Finland,6,23.5833333333333,61.4166666666667,,,,Tampere Seutukunta
2,945,EFHA,Halli,,,Finland,6,24.8,61.85,,,,Jämsä Seutukunta
2,947,EFMI,Mikkeli,,,Finland,6,27.3,61.7333333333333,,,,S:t Michel Kommun
2,948,EFSA,Savonlinna,,,Finland,6,28.95,61.95,,,,Savonlinna Seutukunta
2,952,EFPO,Pori,,,Finland,6,21.8,61.4666666666667,,,,Pori Seutukunta
2,958,EFLP,Lappeenranta,,,Finland,6,28.1486111111111,61.0458333333333,,,,Villmanstrand Kommun
2,961,----,Kuuskajaskari,,,Finland,6,21.3666666666667,61.1333333333333,,,,
2,963,----,Jokioinen,,,Finland,6,23.5,60.8166666666667,,,,Forssa Seutukunta
2,965,----,Lahti,,,Finland,6,25.6333333333333,60.9666666666667,,,,Lahtis Kommun
2,966,EFUT,Utti,,,Finland,6,26.9333333333333,60.9,,,,Kouvola Seutukunta
2,970,EFMA,Mariehamn / Aland Island,,,Finland,6,19.9,60.1166666666667,,,,Åländer Land
2,971,----,Jomala,,,Finland,6,19.8666666666667,60.15,,,,Åländer Land
2,972,EFTU,Turku,,,Finland,6,22.2666666666667,60.5166666666667,,,,Åbo Kommun
2,973,----,Suomusjarvi,,,Finland,6,23.7666666666667,60.4,,,,Salo Seutukunta
2,974,EFHK,Helsinki-Vantaa,,,Finland,6,24.9666666666667,60.3166666666667,,,,Helsinque
2,975,EFHF,Helsinki-Malmi,,,Finland,6,25.05,60.25,,,,Helsinque
2,976,----,Rankki,,,Finland,6,26.9666666666667,60.3666666666667,,,,
2,980,----,Nyhamn,,,Finland,6,19.9666666666667,59.9666666666667,,,,
2,981,----,Uto,,,Finland,6,21.3833333333333,59.7833333333333,,,,
2,982,----,Russaro,,,Finland,6,22.95,59.7666666666667,,,,Raseborg Kommun
2,984,----,Bagaskar,,,Finland,6,24.0166666666667,59.9333333333333,,,,
2,987,----,Kallbadagrund,,,Finland,6,25.6,59.9833333333333,,,,
2,988,----,Isosaari,,,Finland,6,25.0666666666667,60.1,,,,
2,990,----,Kumlinge,,,Finland,6,20.75,60.3,,,,Åländer Schären
2,993,----,Market,,,Finland,6,19.1333333333333,60.3,,,,
3,1,----,Muckle Flugga,,,United Kingdom,6,-0.883333333333333,60.85,,,,
3,2,----,Baltasound,,,United Kingdom,6,-0.85,60.75,,Shetland Islands,ZE2 9DT,Shetland Islands
3,3,EGPB,Sumburgh Cape ,,,United Kingdom,6,-1.3,59.8833333333333,,Shetland Islands,ZE3 9JL,Shetland Islands
3,5,----,Lerwick,,,United Kingdom,6,-1.18333333333333,60.1333333333333,,Shetland Islands,ZE1 0RR,Shetland Islands
3,6,----,Sella Ness,,,United Kingdom,6,-1.26666666666667,60.45,,Shetland Islands,ZE2 9UR,Shetland Islands
3,7,----,Muckle Holm,,,United Kingdom,6,-1.26666666666667,60.5833333333333,,Shetland Islands,ZE2 9RY,Shetland Islands
3,8,----,Fair Isle,,,United Kingdom,6,-1.63333333333333,59.5333333333333,,Shetland Islands,ZE2 9JU,Shetland Islands
3,9,----,North Ronaldsay,,,United Kingdom,6,-2.41666666666667,59.3666666666667,,Orkney Islands,KW17 2BE,Órcades
3,10,----,Sule Skerry,,,United Kingdom,6,-4.4,59.0833333333333,,,,
3,11,----,North Rona,,,United Kingdom,6,-5.81666666666667,59.1166666666667,,,,
3,13,----,Foula,,,United Kingdom,6,-2.06666666666667,60.15,,Shetland Islands,ZE2 9PN,Shetland Islands
3,14,----,Foula,,,United Kingdom,6,-2.06666666666667,60.1166666666667,,Shetland Islands,ZE2 9PN,Shetland Islands
3,17,EGPA,Kirkwall Airport,,,United Kingdom,6,-2.9,58.95,,Orkney Islands,KW17 2QX,Órcades
3,21,----,Lochboisdale,,,United Kingdom,6,-7.31666666666667,57.15,,,,
3,22,EGPL,Benbecula,,,United Kingdom,6,-7.36666666666667,57.4666666666667,,Na h-Eileanan an Iar,HS7 5LA,Western Isles
3,23,----,South Uist Range,,,United Kingdom,6,-7.36666666666667,57.3333333333333,Scotland,Na h-Eileanan an Iar,HS8 5RR,Western Isles
3,25,----,Butt Of Lewis,,,United Kingdom,6,-6.26666666666667,58.5166666666667,,,,
3,26,EGPO,Stornoway,,,United Kingdom,6,-6.31666666666667,58.2166666666667,Scotland,Na h-Eileanan an Iar,HS2 0BN,Western Isles
3,27,----,Waterstein,,,United Kingdom,6,-6.76666666666667,57.4333333333333,Scotland,Highland,IV55 8WT,S12000017
3,31,----,Loch Glascanoch,,,United Kingdom,6,-4.88333333333333,57.7166666666667,Scotland,Highland,IV23 2QH,S12000017
3,34,----,Aultbea,,,United Kingdom,6,-5.63333333333333,57.8666666666667,Scotland,Highland,IV22 2JL,S12000017
3,35,----,Barra,,,United Kingdom,6,-7.45,57.0333333333333,,Na h-Eileanan an Iar,HS9 5YR,Western Isles
3,40,----,Kilmory,,,United Kingdom,6,-6.05,56.7666666666667,Scotland,Highland,PH36 4LG,S12000017
3,41,----,Aonach Mor,,,United Kingdom,6,-4.96666666666667,56.8166666666667,Scotland,Highland,PH33 6SQ,S12000017
3,44,----,Altnaharra,,,United Kingdom,6,-4.43333333333333,58.2833333333333,Scotland,Highland,IV27 4UE,S12000017
3,47,----,Tulloch Bridge,,,United Kingdom,6,-4.7,56.8666666666667,Scotland,Highland,PH31 4AR,S12000017
3,49,----,Cape Wrath,,,United Kingdom,6,-5,58.6333333333333,,,,
3,54,----,Strathy Point,,,United Kingdom,6,-4.01666666666667,58.6,Scotland,Highland,KW14 7RY,
3,55,----,Rackwick,,,United Kingdom,6,-3.38333333333333,58.8666666666667,,,,
3,57,----,Foyers,,,United Kingdom,6,-4.48333333333333,57.2666666666667,Scotland,Highland,IV2 6XT,S12000017
3,58,----,Invergordon Harbour,,,United Kingdom,6,-4.16666666666667,57.6833333333333,,,,
3,59,EGPE,Inverness / Dalcross,,,United Kingdom,6,-4.05,57.5333333333333,Scotland,Highland,IV2 7JG,S12000017
3,62,EGQA,Tain Range,,,United Kingdom,6,-3.96666666666667,57.8166666666667,Scotland,Highland,IV19 1PE,S12000017
3,63,----,Aviemore,,,United Kingdom,6,-3.83333333333333,57.2,Scotland,Highland,PH22 1SN,S12000017
3,65,----,Cairngorm,,,United Kingdom,6,-3.63333333333333,57.1166666666667,Scotland,Highland,PH22 1RB,S12000017
3,66,EGQK,Kinloss,,,United Kingdom,6,-3.56666666666667,57.65,Scotland,Moray,IV36 3RY,S12000020
3,68,EGQS,Lossiemouth,,,United Kingdom,6,-3.31666666666667,57.7166666666667,Scotland,Moray,IV31 6SB,S12000020
3,70,----,Glenlivet,,,United Kingdom,6,-3.35,57.35,Scotland,Moray,AB37 9DA,S12000020
3,72,----,Cairnwell,,,United Kingdom,6,-3.41666666666667,56.8833333333333,Scotland,Aberdeenshire,AB35 5XU,S12000034
3,74,----,Scrabster Harbour,,,United Kingdom,6,-3.55,58.6166666666667,Scotland,Highland,KW14 7UW,S12000017
3,75,EGPC,Wick,,,United Kingdom,6,-3.08333333333333,58.45,Scotland,Highland,KW1 4HS,S12000017
3,76,----,Temp For 03075,,,United Kingdom,6,-3.1,58.45,Scotland,Highland,KW1 4DN,S12000017
3,77,----,Lybster,,,United Kingdom,6,-3.28333333333333,58.3166666666667,Scotland,Highland,KW3 6AT,S12000017
3,80,----,Aboyne,,,United Kingdom,6,-2.83333333333333,57.0833333333333,Scotland,Aberdeenshire,AB34 5JH,S12000034
3,85,----,Inchmarlo,,,United Kingdom,6,-2.53333333333333,57.0666666666667,Scotland,Aberdeenshire,AB31 4BS,S12000034
3,88,----,Inverbervie,,,United Kingdom,6,-2.26666666666667,56.85,Scotland,Aberdeenshire,DD10 0SX,S12000034
3,91,EGPD,Aberdeen / Dyce,,,United Kingdom,6,-2.21666666666667,57.2,Scotland,Aberdeen City,AB21 0LQ,S12000033
3,92,----,Peterhead Harbour,,,United Kingdom,6,-1.76666666666667,57.5,,,,
3,94,----,Rosehearty,,,United Kingdom,6,-2.11666666666667,57.7,,,AB43 7HQ,S12000034
3,100,EGPU,Tiree,,,United Kingdom,6,-6.88333333333333,56.5,,Argyll and Bute,PA77 6UW,S12000035
3,102,----,Orsay,,,United Kingdom,6,-6.5,55.6666666666667,,,,
3,111,EGQJ,Machrihanish,,,United Kingdom,6,-5.7,55.4333333333333,Scotland,Argyll and Bute,PA28 6NZ,S12000035
3,114,----,Oban,,,United Kingdom,6,-5.46666666666667,56.4166666666667,Scotland,Argyll and Bute,PA34 5ED,S12000035
3,120,----,Lochranza,,,United Kingdom,6,-5.3,55.7,Scotland,North Ayrshire,KA27 8HL,S12000021
3,121,----,Kildonan,,,United Kingdom,6,-5.1,55.4333333333333,,,,
3,130,----,West Freugh,,,United Kingdom,6,-4.95,54.85,Scotland,Dumfries and Galloway,DG9 9DW,S12000006
3,132,EGOY,West Freugh,,,United Kingdom,6,-4.95,54.85,Scotland,Dumfries and Galloway,DG9 9DW,S12000006
3,135,EGPK,Prestwick Airport,,,United Kingdom,6,-4.58333333333333,55.5,Scotland,South Ayrshire,KA9 2RX,South Ayrshire Council
3,136,----,Prestwick Rnas,,,United Kingdom,6,-4.58333333333333,55.5166666666667,Scotland,South Ayrshire,KA9 2TX,South Ayrshire Council
3,137,----,Whithorn,,,United Kingdom,6,-4.41666666666667,54.7,Scotland,Dumfries and Galloway,DG8 8HY,S12000006
3,138,----,Greenock Mrcc,,,United Kingdom,6,-4.8,55.9666666666667,,,,
3,139,----,Saughall,,,United Kingdom,6,-4.21666666666667,55.6,Scotland,East Ayrshire,KA17 0NA,S12000008
3,140,EGPF,Glasgow Airport,,,United Kingdom,6,-4.43333333333333,55.8666666666667,Scotland,Renfrewshire,PA3 2TG,S12000038
3,144,----,Strathallan,,,United Kingdom,6,-3.73333333333333,56.3166666666667,Scotland,Perth and Kinross,PH3 1JT,S12000024
3,148,----,Glen Ogle,,,United Kingdom,6,-4.31666666666667,56.4166666666667,Scotland,Stirling,FK21 8SZ,Stirling Council
3,152,----,Salsburgh,,,United Kingdom,6,-3.86666666666667,55.8666666666667,Scotland,North Lanarkshire,ML7 4NZ,S12000044
3,153,----,Dundrennan,,,United Kingdom,6,-4,54.8,Scotland,Dumfries and Galloway,DG6 4RB,S12000006
3,154,----,Dumfries / Drungans,,,United Kingdom,6,-3.65,55.05,Scotland,Dumfries and Galloway,DG2 8LY,S12000006
3,155,----,Drumalbin,,,United Kingdom,6,-3.73333333333333,55.6166666666667,Scotland,South Lanarkshire,ML12 6FH,South Lanarkshire Council
3,158,----,Charterhall,,,United Kingdom,6,-2.38333333333333,55.7,Scotland,Scottish Borders,TD10 6UJ,The Mairches
3,160,EGPH,Edinburgh Airport,,,United Kingdom,6,-3.35,55.95,Scotland,City of Edinburgh,EH12 0AZ,Édimbourg
3,162,----,Eskdalemuir,,,United Kingdom,6,-3.2,55.3166666666667,Scotland,Dumfries and Galloway,DG13 0QW,S12000006
3,165,EGOM,Spadeadam,,,United Kingdom,6,-2.55,55.05,North West,Carlisle,CA8 7BA,Cumbria
3,168,----,Galashiels,,,United Kingdom,6,-2.9,55.6,Scotland,Scottish Borders,TD1 3LA,The Mairches
3,171,EGQL,Leuchars,,,United Kingdom,6,-2.86666666666667,56.3833333333333,Scotland,Fife,KY16 0JZ,S12000015
3,174,----,Fife Ness,,,United Kingdom,6,-2.58333333333333,56.3,,,,
3,176,----,Carterhouse,,,United Kingdom,6,-2.51666666666667,55.3666666666667,Scotland,Scottish Borders,TD8 6PS,The Mairches
3,188,----,Berwick Upon Tweed,,,United Kingdom,6,-2.03333333333333,55.75,North East,Northumberland,TD15 2FD,Northumberland Unitary Authority
3,204,EGNS,Isle Of Man / Ronaldsway Airport,,,United Kingdom,6,-4.63333333333333,54.0833333333333,,,,
3,207,----,Snaefell-Isle,,,United Kingdom,6,-4.46666666666667,54.2666666666667,,,,
3,208,----,Point Of Ayre Lighthouse ,,,United Kingdom,6,-4.36666666666667,54.4166666666667,,,,
3,209,----,Drumburgh,,,United Kingdom,6,-3.15,54.9333333333333,North West,Allerdale,CA7 5DS,Cumbria
3,210,----,Saint Bees Head,,,United Kingdom,6,-3.6,54.5166666666667,North West,Copeland,CA28 9UG,Cumbria
3,212,----,Keswick,,,United Kingdom,6,-3.16666666666667,54.6166666666667,North West,Allerdale,CA12 4RA,Cumbria
3,213,----,Eskmeals,,,United Kingdom,6,-3.4,54.3166666666667,North West,Copeland,LA19 5YE,Cumbria
3,214,EGNL,Walney Island,,,United Kingdom,6,-3.25,54.1166666666667,North West,Barrow-in-Furness,LA14 3RW,Cumbria
3,215,----,Aspatria,,,United Kingdom,6,-3.31666666666667,54.7666666666667,North West,Allerdale,CA7 3DB,Cumbria
3,220,----,Carlisle,,,United Kingdom,6,-2.96666666666667,54.9333333333333,North West,Carlisle,CA6 4SL,Cumbria
3,222,EGNC,Carlisle,,,United Kingdom,6,-2.95,54.9333333333333,North West,Carlisle,CA6 4HW,Cumbria
3,224,----,Spadeadam,,,United Kingdom,6,-2.55,55.05,North West,Carlisle,CA8 7BA,Cumbria
3,225,----,Shap,,,United Kingdom,6,-2.68333333333333,54.5,North West,Eden,CA10 3NE,Cumbria
3,226,----,Warcop Range,,,United Kingdom,6,-2.41666666666667,54.5666666666667,North West,Eden,CA16 6LP,Cumbria
3,227,----,Great Dun Fell,,,United Kingdom,6,-2.45,51.6833333333333,South West,Stroud,GL13 9PL,Gloucestershire
3,229,----,Great Dun Fell,,,United Kingdom,6,-2.45,54.6833333333333,North West,Eden,CA16 6DL,Cumbria
3,230,----,Redesdale,,,United Kingdom,6,-2.28333333333333,55.2833333333333,North East,Northumberland,NE19 1TD,Northumberland Unitary Authority
3,235,----,Boltshope Park,,,United Kingdom,6,-2.08333333333333,54.8166666666667,North East,County Durham,DH8 9UX,
3,240,EGQM,Boulmer,,,United Kingdom,6,-1.6,55.4166666666667,North East,Northumberland,NE66 3JF,Northumberland Unitary Authority
3,241,----,Long Framlington,,,United Kingdom,6,-1.8,55.3,North East,Northumberland,NE65 8BH,Northumberland Unitary Authority
3,242,----,Burnhope,,,United Kingdom,6,-1.71666666666667,54.8166666666667,North East,County Durham,DH7 0EF,
3,246,----,Newcastle Weather Centre,,,United Kingdom,6,-1.6,54.9833333333333,North East,Newcastle upon Tyne,NE2 1NJ,Newcastle-upon-Tyne
3,249,----,Sunderland Polytech,,,United Kingdom,6,-1.38333333333333,54.9,North East,Sunderland,SR2 7BJ,Sunderland District
3,257,EGXE,Leeming,,,United Kingdom,6,-1.53333333333333,54.3,Yorkshire & the Humber,Hambleton,DL7 9SJ,North Yorkshire
3,261,EGXD,Disforth,,,United Kingdom,6,-1.41666666666667,54.1333333333333,Yorkshire & the Humber,Harrogate,YO7 3XA,North Yorkshire
3,262,----,Tynemouth,,,United Kingdom,6,-1.41666666666667,55.0166666666667,North East,North Tyneside,NE30 4DB,North Tyneside District
3,266,EGXU,Linton-On-Ouse,,,United Kingdom,6,-1.25,54.05,Yorkshire & the Humber,Hambleton,YO30 2AQ,North Yorkshire
3,275,----,Loftus Samos,,,United Kingdom,6,-0.866666666666667,54.5666666666667,North East,Redcar and Cleveland,TS13 4JJ,Redcar et Cleveland
3,281,----,Fylingdales,,,United Kingdom,6,-0.666666666666667,54.3666666666667,Yorkshire & the Humber,Ryedale,YO18 7NT,North Yorkshire
3,282,----,Whitby,,,United Kingdom,6,-0.6,54.4833333333333,Yorkshire & the Humber,Scarborough,YO22 4JP,North Yorkshire
3,292,----,Bridlington Mrsc,,,United Kingdom,6,-0.166666666666667,54.1,Yorkshire & the Humber,East Riding of Yorkshire,YO15 1EL,Yorkshire del Este
3,293,----,Cowden,,,United Kingdom,6,-0.1,53.85,,,,
3,302,EGOV,Valley,,,United Kingdom,6,-4.53333333333333,53.25,Wales,Sir Ynys Mon - Isle of Anglesey,LL65 3NY,W06000001
3,303,----,Amlwch,,,United Kingdom,6,-4.36666666666667,53.3833333333333,Wales,Sir Ynys Mon - Isle of Anglesey,LL68 9TS,W06000001
3,305,----,Capel Curig,,,United Kingdom,6,-3.93333333333333,53.1,Wales,Conwy - Conwy,LL24 0ES,W06000003
3,308,----,Snowdon Summit,,,United Kingdom,6,-4.08333333333333,53.0666666666667,Wales,Gwynedd - Gwynedd,LL54 7YS,W06000002
3,313,----,Rhyl,,,United Kingdom,6,-3.5,53.25,Wales,Sir Ddinbych - Denbighshire,LL22 9DP,W06000004
3,314,----,Moel-Y-Crio,,,United Kingdom,6,-3.21666666666667,53.2166666666667,Wales,Sir y Fflint - Flintshire,CH7 5QP,W06000005
3,316,----,Crosby,,,United Kingdom,6,-3.06666666666667,53.5,North West,Sefton,L23 8SY,Sefton District
3,318,EGNH,Blackpool Airport,,,United Kingdom,6,-3.03333333333333,53.7666666666667,North West,Fylde,FY8 2TB,Lancashire
3,321,EGNR,Hawarden,,,United Kingdom,6,-2.98333333333333,53.1666666666667,Wales,Sir y Fflint - Flintshire,CH4 0SG,W06000005
3,322,----,Aughton,,,United Kingdom,6,-2.91666666666667,53.55,North West,West Lancashire,L39 3RG,Lancashire
3,329,----,Winter Hill,,,United Kingdom,6,-2.51666666666667,53.6166666666667,North West,Bolton,BL6 6SL,Bolton District
3,334,EGCC,Manchester Airport,,,United Kingdom,6,-2.28333333333333,53.35,North West,Manchester,WA15 8XQ,Manchester District
3,338,----,Cellarhead,,,United Kingdom,6,-2.08333333333333,53.0333333333333,West Midlands,Staffordshire Moorlands,ST9 0BP,Staffordshire
3,339,----,Skipton,,,United Kingdom,6,-2.03333333333333,53.9666666666667,Yorkshire & the Humber,Craven,BD23 1TY,North Yorkshire
3,344,----,Bingley,,,United Kingdom,6,-1.86666666666667,53.8166666666667,Yorkshire & the Humber,Bradford,BD15 0NB,Bradford District
3,345,----,Emley Moor,,,United Kingdom,6,-1.66666666666667,53.6166666666667,Yorkshire & the Humber,Kirklees,HD8 9TE,Kirklees District
3,347,----,Leeds Weather Centre,,,United Kingdom,6,-1.55,53.8,Yorkshire & the Humber,Leeds,LS1 9ZT,Leeds District
3,354,----,Nottingham Weather Centre,,,United Kingdom,6,-1.25,53,East Midlands,Broxtowe,NG16 1JR,Nottinghamshire
3,355,EGXG,Church Fenton,,,United Kingdom,6,-1.2,53.8333333333333,Yorkshire & the Humber,Selby,LS24 9SE,North Yorkshire
3,377,EGXW,Waddington,,,United Kingdom,6,-0.516666666666667,53.1666666666667,East Midlands,North Kesteven,LN5 9WA,Lincolnshire Cuunty
3,379,EGYD,Cranwell,,,United Kingdom,6,-0.5,53.0333333333333,East Midlands,North Kesteven,NG34 8HD,Lincolnshire Cuunty
3,384,EGXV,Leconfield,,,United Kingdom,6,-0.433333333333333,53.8666666666667,Yorkshire & the Humber,East Riding of Yorkshire,HU17 7JZ,Yorkshire del Este
3,385,----,Donna Nook,,,United Kingdom,6,0.083333333333333,53.4833333333333,East Midlands,East Lindsey,DN36 5UF,Lincolnshire Cuunty
3,387,----,Easington,,,United Kingdom,6,0.116666666666667,53.6666666666667,,,,
3,391,EGXC,Coningsby Royal Air Force Base,,,United Kingdom,6,-0.166666666666667,53.0833333333333,East Midlands,East Lindsey,LN4 4XD,Lincolnshire Cuunty
3,392,EGYW,Wainfleet,,,United Kingdom,6,0.266666666666667,53.0833333333333,East Midlands,East Lindsey,PE24 4BA,Lincolnshire Cuunty
3,402,----,Mynydd Rhiw,,,United Kingdom,6,-4.63333333333333,52.8166666666667,Wales,Gwynedd - Gwynedd,LL53 8AG,W06000002
3,403,----,Nantmor,,,United Kingdom,6,-4.08333333333333,53,Wales,Gwynedd - Gwynedd,LL55 4YH,W06000002
3,405,----,Aberdaron,,,United Kingdom,6,-4.73333333333333,52.7833333333333,Wales,Gwynedd - Gwynedd,LL53 8DA,W06000002
3,408,----,Cynwyd,,,United Kingdom,6,-3.41666666666667,52.95,Wales,Sir Ddinbych - Denbighshire,LL21 0NA,W06000004
3,410,----,Lake Vyrnwy,,,United Kingdom,6,-3.46666666666667,52.75,Wales,Powys - Powys,SY10 0NJ,W06000023
3,411,----,Aberhosan,,,United Kingdom,6,-3.71666666666667,52.5666666666667,Wales,Powys - Powys,SY20 8SJ,W06000023
3,414,EGOS,Shawbury,,,United Kingdom,6,-2.66666666666667,52.8,West Midlands,Shropshire,SY4 4DZ,Shropshire Unitary Authority
3,453,EGXJ,Cottesmore,,,United Kingdom,6,-0.65,52.7333333333333,East Midlands,Rutland,LE15 7ND,Rutland Unitary Authority
3,462,EGXT,Wittering,,,United Kingdom,6,-0.466666666666667,52.6166666666667,Eastern,City of Peterborough,PE9 3JD,Peterborough
3,469,EGYH,Holbeach,,,United Kingdom,6,0.15,52.8666666666667,East Midlands,South Holland,PE12 9NJ,Lincolnshire Cuunty
3,482,EGYM,Marham,,,United Kingdom,6,0.566666666666667,52.65,Eastern,King's Lynn and West Norfolk,PE33 9NP,Norfolk
3,488,----,Weybourne,,,United Kingdom,6,1.13333333333333,52.95,Eastern,North Norfolk,NR25 7SR,Norfolk
3,492,EGSH,Norwich Weather Centre,,,United Kingdom,6,1.3,52.6333333333333,Eastern,Norwich,NR3 1RN,Norfolk
3,495,EGYC,Coltishall,,,United Kingdom,6,1.35,52.4333333333333,Eastern,South Norfolk,IP20 0BY,Norfolk
3,496,----,Hemsby,,,United Kingdom,6,1.68333333333333,52.6833333333333,Eastern,Great Yarmouth,NR29 3LQ,Norfolk
3,501,----,Capel Dewi,,,United Kingdom,6,-4,52.4166666666667,Wales,Sir Ceredigion - Ceredigion,SY23 3HZ,W06000008
3,502,EGUC,Aberporth,,,United Kingdom,6,-4.56666666666667,52.1333333333333,Wales,Sir Ceredigion - Ceredigion,SA43 2DH,W06000008
3,503,----,Trawscoed,,,United Kingdom,6,-3.95,52.35,Wales,Sir Ceredigion - Ceredigion,SY23 4LL,W06000008
3,507,----,Sennybridge,,,United Kingdom,6,-3.61666666666667,52.0666666666667,Wales,Powys - Powys,LD4 4DU,W06000023
3,511,----,Newcastle On Clun,,,United Kingdom,6,-3.11666666666667,52.4333333333333,West Midlands,Shropshire,SY7 8QL,Shropshire Unitary Authority
3,520,----,Shobdon,,,United Kingdom,6,-2.88333333333333,52.25,West Midlands,County of Herefordshire,HR6 9BZ,Herefordshire
3,521,----,Madley,,,United Kingdom,6,-2.85,52.0333333333333,West Midlands,County of Herefordshire,HR2 9NH,Herefordshire
3,525,----,Malvern,,,United Kingdom,6,-2.3,52.0833333333333,West Midlands,Malvern Hills,WR13 6NP,Worcestershire
3,526,----,Barbourne,,,United Kingdom,6,-2.21666666666667,52.2,West Midlands,Worcester,WR1 1PE,Worcestershire
3,527,----,Great Malvern,,,United Kingdom,6,-2.3,52.1166666666667,West Midlands,Malvern Hills,WR14 2GA,Worcestershire
3,529,----,Pershore,,,United Kingdom,6,-2.03333333333333,52.15,West Midlands,Wychavon,WR10 2JX,Worcestershire
3,534,EGBB,Birmingham / Airport,,,United Kingdom,6,-1.73333333333333,52.45,West Midlands,Solihull,B26 3TZ,Solihull District
3,544,----,Church Lawford,,,United Kingdom,6,-1.33333333333333,52.3666666666667,West Midlands,Rugby,CV23 9ES,Warwickshire
3,559,----,Cardington,,,United Kingdom,6,-0.416666666666667,52.1,Eastern,Bedford,MK45 3AA,Bedford Unitary Authority
3,560,----,Bedford,,,United Kingdom,6,-0.483333333333333,52.2166666666667,Eastern,Bedford,MK44 2DG,Bedford Unitary Authority
3,562,EGWZ,Alconbury Royal Air Force Base,,,United Kingdom,6,-0.216666666666667,52.3666666666667,Eastern,Huntingdonshire,PE28 4DE,Cambridgeshire
3,566,EGUY,Wyton Royal Air Force Base,,,United Kingdom,6,-0.116666666666667,52.35,Eastern,Huntingdonshire,PE28 2DR,Cambridgeshire
3,577,EGUN,Mildenhall Royal Air Force Base,,,United Kingdom,6,0.483333333333333,52.3666666666667,Eastern,Forest Heath,IP28 8BZ,Suffolk
3,583,EGUL,Lakenheath Royal Air Force Base,,,United Kingdom,6,0.566666666666667,52.4166666666667,Eastern,Forest Heath,IP27 0SJ,Suffolk
3,586,EGXH,Honington Royal Air Force Base,,,United Kingdom,6,0.766666666666667,52.3333333333333,Eastern,St. Edmundsbury,IP31 1EE,Suffolk
3,590,EGUW,Wattisham,,,United Kingdom,6,0.966666666666667,52.1166666666667,Eastern,Mid Suffolk,IP7 7RP,Suffolk
3,604,----,Milford Haven,,,United Kingdom,6,-5.05,51.7,,,,
3,605,EGOP,Pembrey Sands,,,United Kingdom,6,-4.36666666666667,51.7166666666667,Wales,Sir Gaerfyrddin - Carmarthenshire,SA17 5HQ,W06000010
3,607,----,Pendine,,,United Kingdom,6,-4.51666666666667,51.75,Wales,Sir Gaerfyrddin - Carmarthenshire,SA33 4TU,W06000010
3,608,----,Pendine,,,United Kingdom,6,-4.51666666666667,51.75,Wales,Sir Gaerfyrddin - Carmarthenshire,SA33 4TU,W06000010
3,609,----,Mumbles,,,United Kingdom,6,-3.98333333333333,51.5666666666667,Wales,Abertawe - Swansea,SA3 4JT,W06000011
3,614,----,Cilfynydd,,,United Kingdom,6,-3.3,51.6333333333333,Wales,Caerffili - Caerphilly,CF37 4HN,W06000018
3,644,EGVA,Fairford Royal Air Force Base,,,United Kingdom,6,-1.78333333333333,51.6833333333333,South West,Cotswold,GL7 4DG,Gloucestershire
3,647,----,Little Rissington,,,United Kingdom,6,-1.68333333333333,51.8666666666667,South East,West Oxfordshire,OX7 6SJ,Oxfordshire
3,649,EGVN,Brize Norton,,,United Kingdom,6,-1.58333333333333,51.75,South East,West Oxfordshire,OX18 3TB,Oxfordshire
3,658,EGUB,Benson,,,United Kingdom,6,-1.08333333333333,51.6166666666667,South East,South Oxfordshire,OX10 6EW,Oxfordshire
3,660,----,High Wicombe Hqstc,,,United Kingdom,6,-0.8,51.6833333333333,South East,Wycombe,HP14 4XB,Buckinghamshire
3,670,----,Northwood,,,United Kingdom,6,-0.4,51.6166666666667,Eastern,Three Rivers,WD19 6UL,Hertfordshire
3,672,EGWU,Northolt,,,United Kingdom,6,-0.416666666666667,51.55,London,Hillingdon,HA4 6EP,Greater London
3,674,----,Chenies,,,United Kingdom,6,-0.533333333333333,51.6833333333333,Eastern,Dacorum,HP5 1XB,Hertfordshire
3,683,EGSS,Stansted Airport,,,United Kingdom,6,0.233333333333333,51.8833333333333,Eastern,Uttlesford,CM24 1QQ,Essex
3,693,----,Shoeburyness,,,United Kingdom,6,0.833333333333333,51.55,Eastern,Rochford,SS3 9XJ,Essex
3,695,----,Thames Tower,,,United Kingdom,6,1.1,51.6666666666667,,,,
3,696,----,Walton-On-Naze,,,United Kingdom,6,1.28333333333333,51.85,,,,
3,700,----,Saint Gowan L. V.,,,United Kingdom,6,-5,51.5,,,,
3,701,----,Gawlish,,,United Kingdom,6,-4.48333333333333,51.0166666666667,South West,Torridge,EX39 6AT,Devon
3,707,EGDC,Chivenor,,,United Kingdom,6,-4.15,51.0833333333333,South West,North Devon,EX31 4RB,Devon
3,710,----,Liscombe,,,United Kingdom,6,-3.6,51.0833333333333,South West,West Somerset,TA22 9PX,Somerset
3,712,----,Tivington,,,United Kingdom,6,-3.53333333333333,51.2,South West,West Somerset,TA24 8ST,Somerset
3,715,EGFF,Cardiff-Wales Airport,,,United Kingdom,6,-3.35,51.4,Wales,Bro Morgannwg - the Vale of Glamorgan,CF62 3DN,W06000014
3,717,----,Cardiff Weather Centre,,,United Kingdom,6,-3.18333333333333,51.4833333333333,Wales,Caerdydd - Cardiff,CF10 3EW,W06000015
3,726,----,Bristol Weather Centre,,,United Kingdom,6,-2.6,51.4666666666667,South West,City of Bristol,BS6 6BT,City of Bristol
3,740,EGDL,Lyneham,,,United Kingdom,6,-1.98333333333333,51.5,South West,Wiltshire,SN11 9JP,Wiltshire Unitary Authority
3,743,----,Larkhill,,,United Kingdom,6,-1.8,51.2,South West,Wiltshire,SP4 8QQ,Wiltshire Unitary Authority
3,746,EGDM,Boscombe Down,,,United Kingdom,6,-1.75,51.1666666666667,South West,Wiltshire,SP4 0JE,Wiltshire Unitary Authority
3,749,EGVP,Middle Wallop,,,United Kingdom,6,-1.56666666666667,51.15,South East,Test Valley,SO20 8DY,Hampshire
3,759,----,Test Samos 03761,,,United Kingdom,6,-0.95,51.25,South East,Hart,RG29 1PB,Hampshire
3,761,EGVO,Odiham,,,United Kingdom,6,-0.95,51.2333333333333,South East,Hart,RG29 1QX,Hampshire
3,763,EGRR,Bracknell / Beaufort Park,,,United Kingdom,6,-0.783333333333333,51.3833333333333,South East,Bracknell Forest,RG40 3GA,Bracknell Forest Unitary Authority
3,766,EGUF,Farnborough Military ,,,United Kingdom,6,-0.766666666666667,51.2833333333333,South East,Rushmoor,GU14 6FE,Hampshire
3,768,EGLF,Farnborough,,,United Kingdom,6,-0.766666666666667,51.2833333333333,South East,Rushmoor,GU14 6FE,Hampshire
3,772,EGLL,London / Heathrow Airport,,,United Kingdom,6,-0.45,51.4833333333333,London,Hillingdon,UB7 0DU,Greater London
3,776,EGKK,London / Gatwick Airport,,,United Kingdom,6,-0.183333333333333,51.15,South East,Crawley,RH6 0PQ,West Sussex
3,779,EGRB,London Weather Centre,,,United Kingdom,6,-0.116666666666667,51.5166666666667,London,Camden,WC2A 3ED,Greater London
3,781,----,Kenley,,,United Kingdom,6,-0.083333333333333,51.3,South East,Tandridge,CR3 0AP,Surrey
3,784,----,Gravesend-Broadness,,,United Kingdom,6,0.3,51.4666666666667,South East,Dartford,RM20 4AL,Thurrock Unitary Authority
3,785,----,Charing,,,United Kingdom,6,0.783333333333333,51.2,South East,Ashford,TN27 0AJ,Kent
3,789,----,Jubilee Corner,,,United Kingdom,6,0.633333333333333,51.1833333333333,South East,Maidstone,TN27 9JX,Kent
3,791,----,Sheerness,,,United Kingdom,6,0.75,51.45,,,,
3,796,----,Langdon Bay,,,United Kingdom,6,1.35,51.1333333333333,South East,Dover,CT15 5NA,Kent
3,797,EGUM,Manston,,,United Kingdom,6,1.35,51.35,South East,Thanet,CT12 5DF,Kent
3,803,EGHE,"Scilly, Saint Mary'S",,,United Kingdom,6,-6.3,49.9166666666667,,Isles of Scilly,TR21 0NN,Isles of Scilly Unitary Authority
3,808,----,Camborne,,,United Kingdom,6,-5.31666666666667,50.2166666666667,South West,Cornwall,TR14 7NL,Cornwall Unitary Authority
3,809,EGDR,Culdrose,,,United Kingdom,6,-5.25,50.0833333333333,South West,Cornwall,TR13 0QB,Cornwall Unitary Authority
3,810,----,Pendennis Point,,,United Kingdom,6,-5.06666666666667,50.15,South West,Cornwall,TR11 3HR,Cornwall Unitary Authority
3,815,----,Lizard Lighthouse,,,United Kingdom,6,-5.2,49.9666666666667,South West,Cornwall,TR12 7PF,Cornwall Unitary Authority
3,817,EGDG,Saint Mawgan,,,United Kingdom,6,-5,50.4333333333333,South West,Cornwall,TR8 4JZ,Cornwall Unitary Authority
3,820,----,Davidstow Moor,,,United Kingdom,6,-4.6,50.6333333333333,South West,Cornwall,PL15 8PU,Cornwall Unitary Authority
3,823,----,Cardinham,,,United Kingdom,6,-4.66666666666667,50.5,South West,Cornwall,PL30 4BU,Cornwall Unitary Authority
3,824,----,Bastreet,,,United Kingdom,6,-4.48333333333333,50.5666666666667,South West,Cornwall,PL15 7PE,Cornwall Unitary Authority
3,827,EGDB,Plymouth,,,United Kingdom,6,-4.11666666666667,50.35,South West,City of Plymouth,PL9 9RW,Plymouth
3,830,----,Burrington,,,United Kingdom,6,-3.98333333333333,50.9333333333333,South West,North Devon,EX37 9LQ,Devon
3,831,----,North Hessary Tor,,,United Kingdom,6,-4,50.55,South West,West Devon,PL20 6RN,Devon
3,837,----,Brixham,,,United Kingdom,6,-3.48333333333333,50.4,South West,Torbay,TQ5 9AW,Torbay Unitary Authority
3,839,EGTE,Exeter Airport,,,United Kingdom,6,-3.41666666666667,50.7333333333333,South West,East Devon,EX5 2BD,Devon
3,840,----,Dunkeswell Aerodrome,,,United Kingdom,6,-3.23333333333333,50.8666666666667,South West,East Devon,EX14 4LT,Devon
3,841,----,Temp For 03840,,,United Kingdom,6,-3.25,50.8666666666667,South West,East Devon,EX14 4QT,Devon
3,853,EGDY,Yeovilton,,,United Kingdom,6,-2.63333333333333,51,South West,South Somerset,BA22 8EE,Somerset
3,857,----,Isle Of Portland,,,United Kingdom,6,-2.46666666666667,50.5166666666667,,,,
3,858,EGDP,Portland / Rnas,,,United Kingdom,6,-2.45,50.5666666666667,South West,Weymouth and Portland,DT5 1FD,Dorset
3,862,EGHH,Bournemouth Airport,,,United Kingdom,6,-1.83333333333333,50.7833333333333,South West,Christchurch,BH23 6NE,Dorset
3,865,EGHI,Southampton / Weather Centre,,,United Kingdom,6,-1.4,50.9,South East,City of Southampton,SO14 3DH,Southampton
3,866,----,Saint Catherine's Point,,,United Kingdom,6,-1.3,50.5833333333333,South East,Isle of Wight,PO38 2JA,Île de Wight
3,867,----,Lee-On-Solent,,,United Kingdom,6,-1.21666666666667,50.8166666666667,South East,Fareham,PO14 2RH,Hampshire
3,872,----,Thorney Island,,,United Kingdom,6,-0.916666666666667,50.8166666666667,South East,Chichester,PO10 8DP,West Sussex
3,874,----,Solent M. R. S. C.,,,United Kingdom,6,-1.21666666666667,50.8,,,,
3,876,EGKA,Shoreham Airport,,,United Kingdom,6,-0.283333333333333,50.8333333333333,South East,Adur,BN43 5LT,West Sussex
3,880,----,Newhaven,,,United Kingdom,6,0.05,50.7833333333333,South East,Lewes,BN9 9DJ,East Sussex
3,881,----,Brede,,,United Kingdom,6,0.6,50.9333333333333,South East,Rother,TN31 6HH,East Sussex
3,882,----,Herstmonceux,,,United Kingdom,6,0.316666666666667,50.9,South East,Wealden,BN27 4QQ,East Sussex
3,894,EGJB,Guernsey Airport,,,United Kingdom,6,-2.6,49.4333333333333,,,,
3,895,EGJJ,Jersey Airport,,,United Kingdom,6,-2.2,49.2166666666667,,,,
3,896,----,Saint Helier,,,United Kingdom,6,-2.1,49.2,,,,
3,900,----,Knockarevan,,,United Kingdom,6,-8.08333333333333,54.4166666666667,,,,Fermanagh District Council
3,902,----,Corgary,,,United Kingdom,6,-8.05,54.4333333333333,,,,Fermanagh District Council
3,903,----,St Angelo,,,United Kingdom,6,-7.65,54.4,,,,Fermanagh District Council
3,904,----,Castlederg,,,United Kingdom,6,-7.58333333333333,54.7,,,,Strabane District Council
3,906,----,Carmoney,,,United Kingdom,6,-7.23333333333333,55.0166666666667,,,,Londonderry City Council
3,908,----,Ballykelly,,,United Kingdom,6,-7.01666666666667,55.0666666666667,,,,Limvady Boroug Council
3,911,----,Lough Fea,,,United Kingdom,6,-6.81666666666667,54.7166666666667,,,,Cookstown District Council
3,912,----,Moyola,,,United Kingdom,6,-6.51666666666667,54.7166666666667,,,,Magherafelt District Council
3,914,----,Portrush,,,United Kingdom,6,-6.65,55.2,,,,Coleraine Borough
3,915,----,Portglenone,,,United Kingdom,6,-6.45,54.8666666666667,,,,Ballymena Borough
3,916,----,Ballypatrick Forest,,,United Kingdom,6,-6.16666666666667,55.1833333333333,,,,Moyle District Council
3,917,EGAA,Belfast / Aldergrove Airport,,,United Kingdom,6,-6.21666666666667,54.65,,,,Antrim Borough
3,920,----,Hillsborough,,,United Kingdom,6,-6.1,54.4833333333333,,,,Lisburn City Council
3,923,----,Glenanne,,,United Kingdom,6,-6.5,54.2333333333333,,,,Newry And Mourne District Council
3,924,EGAC,Belfast / Harbour,,,United Kingdom,6,-5.88333333333333,54.6,,,,Belfast City Council
3,926,----,Killough,,,United Kingdom,6,-5.61666666666667,54.2333333333333,,,,
3,927,----,Bangor Harbour,,,United Kingdom,6,-5.66666666666667,54.6666666666667,,,,
3,928,----,Larne,,,United Kingdom,6,-5.8,54.85,,,,Larne Borough Council
3,952,----,Roches Point,,,Ireland,6,-8.25,51.8,,,,
3,953,----,Valentia Observatory,,,Ireland,6,-10.25,51.9333333333333,,,,
3,955,EICK,Cork Airport,,,Ireland,6,-8.48333333333333,51.85,,,,
3,957,----,Rosslare,,,Ireland,6,-6.33333333333333,52.25,,,,
3,960,----,Kilkenny,,,Ireland,6,-7.26666666666667,52.6666666666667,,,,
3,962,EINN,Shannon Airport,,,Ireland,6,-8.91666666666667,52.7,,,,
3,964,----,Galway,,,Ireland,6,-9.01666666666667,53.2833333333333,,,,
3,965,----,Birr,,,Ireland,6,-7.88333333333333,53.0833333333333,,,,
3,967,EIME,Casement Aerodrome,,,Ireland,6,-6.43333333333333,53.3,,,,
3,969,EIDW,Dublin Airport,,,Ireland,6,-6.25,53.4333333333333,,,,
3,970,----,Claremorris,,,Ireland,6,-8.98333333333333,53.7166666666667,,,,
3,971,----,Mullingar,,,Ireland,6,-7.36666666666667,53.5333333333333,,,,
3,973,----,Connaught Airport,,,Ireland,6,-8.81666666666667,53.9,,,,
3,974,----,Clones,,,Ireland,6,-7.23333333333333,54.1833333333333,,,,
3,976,----,Belmullet,,,Ireland,6,-10,54.2333333333333,,,,
3,978,----,Finner,,,Ireland,6,-8.23333333333333,54.5,,,,
3,980,----,Malin Head,,,Ireland,6,-7.33333333333333,55.3666666666667,,,,
4,1,----,Breidavik,,,Iceland,6,-24.35,65.5333333333333,,,,
4,3,----,Kvigindisdalur,,,Iceland,6,-24.0166666666667,65.55,,,,
4,5,----,Bolungavik,,,Iceland,6,-23.25,66.15,,,,
4,7,----,Holar I Dyrafirdi,,,Iceland,6,-23.6,65.8666666666667,,,,
4,10,----,Nedri-Holl,,,Iceland,6,-23.0333333333333,64.8,,,,
4,13,BIST,Stykkisholmur,,,Iceland,6,-22.7333333333333,65.0833333333333,,,,
4,14,----,Reykjanesviti,,,Iceland,6,-22.7166666666667,63.8166666666667,,,,
4,17,----,Aedey,,,Iceland,6,-22.6666666666667,66.1,,,,
4,18,BIKF,Keflavikurflugvollur,,,Iceland,6,-22.6,63.9666666666667,,,,
4,25,----,Reykholar,,,Iceland,6,-22.2,65.45,,,,
4,27,----,Asgardur,,,Iceland,6,-21.75,65.2333333333333,,,,
4,30,BIRK,Reykjavik,,,Iceland,6,-21.9,64.1333333333333,,,,
4,34,----,Stafholtsey,,,Iceland,6,-21.6,64.6166666666667,,,,
4,38,----,Eyrarbakki,,,Iceland,6,-21.15,63.8666666666667,,,,
4,41,----,Tannstadabakki,,,Iceland,6,-21.1,65.2833333333333,,,,
4,42,----,Hjardarland,,,Iceland,6,-20.4166666666667,64.25,,,,
4,44,----,Hella,,,Iceland,6,-20.4,63.8333333333333,,,,
4,45,----,Blonduos,,,Iceland,6,-20.3,65.6666666666667,,,,
4,48,BIVM,Vestmannaeyjar,,,Iceland,6,-20.2833333333333,63.4,,,,
4,50,----,Haell,,,Iceland,6,-20.25,64.0666666666667,,,,
4,51,----,Hraun A Skaga,,,Iceland,6,-20.1166666666667,66.1166666666667,,,,
4,52,----,Basar,,,Iceland,6,-19.4833333333333,64.6833333333333,,,,
4,53,----,Bergstadir,,,Iceland,6,-19.6166666666667,65.7,,,,
4,55,----,Nautabu,,,Iceland,6,-19.3666666666667,65.45,,,,
4,56,----,Hveravellir,,,Iceland,6,-19.5666666666667,64.8666666666667,,,,
4,58,----,Vatnsskardsholar,,,Iceland,6,-19.1833333333333,63.4166666666667,,,,
4,59,----,Saudanesviti,,,Iceland,6,-18.9666666666667,66.1833333333333,,,,
4,62,----,Nordurhjaleiga,,,Iceland,6,-18.3833333333333,63.5,,,,
4,63,BIAR,Akureyri,,,Iceland,6,-18.0833333333333,65.6833333333333,,,,
4,64,----,Kirkjubaejarklaustur,,,Iceland,6,-18.0666666666667,63.7833333333333,,,,
4,65,BIGR,Grimsey,,,Iceland,6,-18.0166666666667,66.5333333333333,,,,
4,66,----,Versalir,,,Iceland,6,-18.75,64.45,,,,
4,69,----,Stadarholl,,,Iceland,6,-17.2,65.8166666666667,,,,
4,71,----,Manarbakki,,,Iceland,6,-17.1,66.2,,,,
4,72,----,Fagurholsmyri,,,Iceland,6,-16.65,63.8833333333333,,,,
4,73,----,Grimsstadir,,,Iceland,6,-16.1166666666667,65.6333333333333,,,,
4,77,BIRG,Raufarhofn,,,Iceland,6,-15.95,66.45,,,,
4,80,----,Snaefellsskali,,,Iceland,6,-15.6333333333333,64.8,,,,
4,81,----,Saudanes,,,Iceland,6,-15.2666666666667,66.25,,,,
4,82,BIHN,Akurnes,,,Iceland,6,-15.2166666666667,64.3,,,,
4,85,BIVO,Skjaldthingsstadir,,,Iceland,6,-14.8166666666667,65.7,,,,
4,87,----,Strandhofn,,,Iceland,6,-14.65,65.9,,,,
4,89,BIEG,Egilsstadir,,,Iceland,6,-14.4,65.2833333333333,,,,
4,91,----,Reydarfjordur,,,Iceland,6,-14.2333333333333,65.0333333333333,,,,
4,94,----,Nupur,,,Iceland,6,-14.1,64.7,,,,
4,97,----,Dalatangi,,,Iceland,6,-13.5833333333333,65.2666666666667,,,,
4,101,----,Bjargtangar,,,Iceland,6,-24.5166666666667,65.5,,,,
4,103,----,Patreksfjordur,,,Iceland,6,-24,65.6,,,,
4,104,----,Gufuskalar,,,Iceland,6,-23.9333333333333,64.9,,,,
4,109,----,Thverfjall,,,Iceland,6,-23.3166666666667,66.05,,,,
4,110,----,Navy Operated Automatic Meteorological Observing System ,,,Greenland,6,-38.8,72.2833333333333,,,,
4,115,----,Dynjandiheidi,,,Iceland,6,-23.0833333333333,65.7,,,,
4,119,----,Thingmannaheidi,,,Iceland,6,-22.8,65.6333333333333,,,,
4,120,----,Grindavik,,,Iceland,6,-22.4166666666667,63.85,,,,
4,124,----,Straumsvik,,,Iceland,6,-22.3333333333333,64.05,,,,
4,126,----,Grundartangi,,,Iceland,6,-21.7833333333333,64.35,,,,
4,130,----,Reykjavik,,,Iceland,6,-21.9,64.1333333333333,,,,
4,131,----,Gjogur,,,Iceland,6,-21.35,65.9833333333333,,,,
4,140,----,Thorlakshofn,,,Iceland,6,-21.3833333333333,63.85,,,,
4,149,----,Kolka,,,Iceland,6,-19.7166666666667,65.4,,,,
4,154,----,Burfell,,,Iceland,6,-19.7333333333333,64.0833333333333,,,,
4,160,----,Thufuver,,,Iceland,6,-18.6,64.5833333333333,,,,
4,161,----,Dalvik,,,Iceland,6,-18.5333333333333,65.9666666666667,,,,
4,162,----,Veidivatnahraun,,,Iceland,6,-18.5,64.4,,,,
4,165,----,Grimsey,,,Iceland,6,-18.0166666666667,66.5333333333333,,,,
4,166,----,Jokulheimar,,,Iceland,6,-18.2166666666667,64.3166666666667,,,,
4,168,----,Sandbudir,,,Iceland,6,-17.9833333333333,64.9333333333334,,,,
4,170,----,Skardsfjoruviti,,,Iceland,6,-17.9833333333333,63.5166666666667,,,,
4,180,----,Hvanney,,,Iceland,6,-15.2,64.2333333333333,,,,
4,183,----,Fontur,,,Iceland,6,-14.5333333333333,66.3833333333333,,,,
4,193,----,Gagnheidi,,,Iceland,6,-14.2666666666667,65.2166666666667,,,,
4,196,----,Kambanes,,,Iceland,6,-13.85,64.8,,,,
4,197,----,Dalatangi,,,Iceland,6,-13.5833333333333,65.2666666666667,,,,
4,201,----,Qaanaaq,,,Greenland,6,-63.2166666666667,77.4666666666667,,,,
4,202,BGTL,Thule A. B.,,,Greenland,6,-68.75,76.5333333333333,,,,
4,203,----,Carey Isl.,,,Greenland,6,-73,76.6333333333333,,,,
4,207,----,Hall Land,,,Greenland,6,-59.95,81.6833333333333,,,,
4,208,----,Edderfugle Oeer,,,Greenland,6,-57.8166666666667,74.0333333333333,,,,
4,210,----,Upernavik,,,Greenland,6,-56.1666666666667,72.7833333333333,,,,
4,214,----,Nuussuaq,,,Greenland,6,-54.6166666666667,70.6833333333334,,,,
4,220,BGEM,Egedesminde,,,Greenland,6,-52.75,68.7,,,,
4,221,BGJN,Jacobshavn Lufthavn,,,Greenland,6,-51.0666666666667,69.2333333333333,,,,
4,228,----,Attu Kitsissut,,,Greenland,6,-53.9666666666667,67.7833333333333,,,,
4,230,BGHB,Holsteinsborg,,,Greenland,6,-53.6666666666667,66.9166666666667,,,,
4,231,BGSF,Sdr Stroemfjord,,,Greenland,6,-50.7,67.0166666666667,,,,
4,242,----,Sioralik,,,Greenland,6,-52.55,65.0166666666667,,,,
4,250,BGGH,Godthaab / Nuuk,,,Greenland,6,-51.75,64.1666666666667,,,,
4,253,----,Frederikshaab Isblink,,,Greenland,6,-50.4166666666667,62.5666666666667,,,,
4,254,----,Godthaab Lufthavn,,,Greenland,6,-51.6833333333333,64.2,,,,
4,260,BGFH,Frederikshaab,,,Greenland,6,-49.6666666666667,62,,,,
4,261,BGGD,Groennedal,,,Greenland,6,-48.1,61.2333333333333,,,,
4,266,----,Nunarsuit,,,Greenland,6,-48.4166666666667,60.7666666666667,,,,
4,270,BGBW,Narsarsuaq,,,Greenland,6,-45.4166666666667,61.1666666666667,,,,
4,272,BGJH,Julianehaab,,,Greenland,6,-46.05,60.7166666666667,,,,
4,285,BGAS,Angisoq,,,Greenland,6,-45.2,59.9833333333333,,,,
4,301,----,Kap Morris Jesup,,,Greenland,6,-33.3666666666667,83.65,,,,
4,305,----,Cape Harald Moltke,,,Greenland,6,-29.9166666666667,82.15,,,,
4,310,----,Nord,,,Greenland,6,-16.65,81.6,,,,
4,312,----,Nord Aws,,,Greenland,6,-16.65,81.6,,,,
4,313,----,Henrik Kroeyer Holme,,,Greenland,6,-13.7166666666667,80.65,,,,
4,320,BGDH,Danmarkshavn,,,Greenland,6,-18.6666666666667,76.7666666666667,,,,
4,330,BGDB,Daneborg,,,Greenland,6,-20.2166666666667,74.3,,,,
4,339,BGSC,Scoresbysund,,,Greenland,6,-21.95,70.4833333333333,,,,
4,340,BGKT,Cape Tobin Automated Reporting Station ,,,Greenland,6,-21.9666666666667,70.4166666666667,,,,
4,341,BGCO,Constable Pynt,,,Greenland,6,-22.65,70.75,,,,
4,351,BGAT,Aputiteeq,,,Greenland,6,-32.3,67.7833333333333,,,,
4,360,BGAM,Tasiilaq,,,Greenland,6,-37.6333333333333,65.6,,,,
4,361,BGKK,Kulusuk Lufthavn,,,Greenland,6,-37.15,65.5833333333333,,,,
4,373,----,Ikermit,,,Greenland,6,-40.3,64.7833333333333,,,,
4,382,----,Ikermiuarsuk,,,Greenland,6,-42.0666666666667,61.9333333333333,,,,
4,390,BGPC,Prins Christian Sund,,,Greenland,6,-43.1666666666667,60.05,,,,
6,9,----,Akraberg,,,Denmark,6,-6.66666666666667,61.4,,,,
6,10,EKVG,Soervaag / Vagar,,,Denmark,6,-7.28333333333333,62.0666666666667,,,,
6,11,----,Thorshavn,,,Denmark,6,-6.76666666666667,62.0166666666667,,,,
6,22,----,Tyra Oest,,,Denmark,6,4.8,55.7166666666667,,,,
6,24,EKTS,Thisted Lufthavn,,,Denmark,6,8.71666666666667,57.0666666666667,,,,Thisted Kommune
6,30,EKYT,Aalborg,,,Denmark,6,9.85,57.1,,,,Ålborg Kommune
6,34,EKSN,Sindal Flyveplads,,,Denmark,6,10.2166666666667,57.5,,,,Hjørring Kommune
6,41,----,Skagen,,,Denmark,6,10.6333333333333,57.7333333333333,,,,Frederikshavn Kommune
6,43,----,Frederikshavn,,,Denmark,6,10.5166666666667,57.4,,,,Frederikshavn Kommune
6,48,EKHS,Hadsund,,,Denmark,6,10.1166666666667,56.7166666666667,,,,Mariagerfjord Kommune
6,52,----,Thyboroen,,,Denmark,6,8.21666666666667,56.7,,,,Lemvig Kommune
6,53,----,Aggersund,,,Denmark,6,9.3,57,,,,Vesthimmerlands
6,54,EKHO,Lindtorp Airport,,,Denmark,6,8.45,56.4,,,,Struer Kommune
6,58,----,Hvide Sande,,,Denmark,6,8.13333333333333,56,,,,Ringkøbing-Skjern Kommune
6,60,EKKA,Karup,,,Denmark,6,9.11666666666667,56.3,,,,Viborg Kommune
6,62,EKSV,Skive Lufthavn,,,Denmark,6,9.16666666666667,56.55,,,,Skive Kommune
6,66,EKVJ,Stauning Lufthavn,,,Denmark,6,8.35,56,,,,Ringkøbing-Skjern Kommune
6,69,----,Foulum,,,Denmark,6,9.58333333333333,56.5,,,,Viborg Kommune
6,70,EKAH,Tirstrup,,,Denmark,6,10.6166666666667,56.3,,,,Syddjurs Kommune
6,71,----,Fornaes,,,Denmark,6,10.9666666666667,56.45,,,,
6,78,EKAT,Anholt Island Automated Reporting Station ,,,Denmark,6,11.55,56.7,,,,Norddjurs Kommune
6,79,----,Anholt,,,Denmark,6,11.5166666666667,56.7166666666667,,,,Norddjurs Kommune
6,80,EKEB,Esbjerg,,,Denmark,6,8.56666666666667,55.5333333333333,,,,Esbjerg Kommune
6,81,----,Blaavand,,,Denmark,6,8.08333333333333,55.55,,,,
6,96,----,Roemoe,,,Denmark,6,8.56666666666667,55.1833333333333,,,,Tønder Kommune
6,99,----,Roemoe Havneby,,,Denmark,6,8.56666666666667,55.0833333333333,,,,
6,100,EKVA,Vandel,,,Denmark,6,9.2,55.7,,,,Vejle Kommune
6,104,EKBI,Billund Lufthavn,,,Denmark,6,9.16666666666667,55.7333333333333,,,,Vejle Kommune
6,108,EKVD,Vamdrup,,,Denmark,6,9.33333333333333,55.4333333333333,,,,Kolding Kommune
6,110,EKSP,Skrydstrup,,,Denmark,6,9.26666666666667,55.2333333333333,,,,Haderslev Kommune
6,111,----,Baagoe,,,Denmark,6,9.8,55.3,,,,Assens Kommune
6,113,----,Toftlund,,,Denmark,6,9.06666666666667,55.1833333333333,,,,Tønder Kommune
6,118,EKSB,Soenderborg Lufthavn,,,Denmark,6,9.78333333333333,54.9666666666667,,,,Sønderborg Kommune
6,119,----,Kegnaes,,,Denmark,6,9.98333333333333,54.85,,,,
6,120,EKOD,Odense / Beldringe,,,Denmark,6,10.3333333333333,55.4833333333333,,,,Nordfyns Kommune
6,124,EKST,Sydfyns Flyveplads,,,Denmark,6,10.5666666666667,55.0166666666667,,,,Svendborg Kommune
6,131,----,Vesborg,,,Denmark,6,10.55,55.7666666666667,,,,
6,142,----,Albuen,,,Denmark,6,10.9666666666667,54.8333333333333,,,,
6,143,EKMB,Maribo Lufthavn,,,Denmark,6,11.45,54.7,,,,Lolland Kommune
6,149,----,Gedser Odde,,,Denmark,6,11.9666666666667,54.5666666666667,,,,Guldborgsund Kommune
6,150,EKAV,Avno Danish Air Force Base ,,,Denmark,6,11.7833333333333,55.0833333333333,,,,Vordingborg Kommune
6,151,----,Omoe,,,Denmark,6,11.1333333333333,55.1666666666667,,,,
6,153,----,Tyvelse,,,Denmark,6,11.7166666666667,55.3833333333333,,,,Næstved Kommune
6,156,----,Holbaek,,,Denmark,6,11.7166666666667,55.7166666666667,,,,Holbæk Kommune
6,159,----,Roesnaes,,,Denmark,6,10.8666666666667,55.75,,,,
6,160,EKVL,Vaerloese,,,Denmark,6,12.3333333333333,55.7666666666667,,,,Furesø Kommune
6,165,----,Hesseloe,,,Denmark,6,11.7166666666667,56.2,,,,
6,168,----,Nakkehoved,,,Denmark,6,12.35,56.1166666666667,,,,Gribskov Kommune
6,169,----,Gniben,,,Denmark,6,11.2833333333333,56.0166666666667,,,,
6,170,EKRK,Koebenhavn / Roskilde,,,Denmark,6,12.1333333333333,55.5833333333333,,,,Roskilde Kommune
6,173,----,Stevns,,,Denmark,6,31.4,55.2833333333333,,,,
6,179,----,Moen,,,Denmark,6,12.55,54.95,,,,
6,180,EKCH,Koebenhavn / Kastrup,,,Denmark,6,12.65,55.6166666666667,,,,Tårnby Kommune
6,181,----,Koebenhavn / Jaegersborg,,,Denmark,6,12.5333333333333,55.7666666666667,,,,Gentofte Kommune
6,183,----,Drogden,,,Denmark,6,12.7166666666667,55.5333333333333,,,,
6,186,----,Koebenhavn / Landbohoejskolen,,,Denmark,6,12.5333333333333,55.6833333333333,,,,Frederiksberg Kommune
6,190,EKRN,Roenne,,,Denmark,6,14.75,55.0666666666667,,,,Bornholm Kommune
6,191,----,Christiansoe,,,Denmark,6,15.1833333333333,55.3166666666667,,,,
6,193,----,Hammer Odde,,,Denmark,6,14.7833333333333,55.3,,,,
6,210,EHVB,Valkenburg,,,Netherlands,6,4.41666666666667,52.1833333333333,,,,
6,225,----,Ijmuiden,,,Netherlands,6,4.58333333333333,52.4666666666667,,,,
6,229,----,Texelhors Wp,,,Netherlands,6,4.71666666666667,53,,,,
6,235,EHKD,De Kooy,,,Netherlands,6,4.78333333333333,52.9166666666667,,,,
6,239,----,F3,,,Netherlands,6,4.73333333333333,54.85,,,,
6,240,EHAM,Amsterdam Airport Schiphol,,,Netherlands,6,4.76666666666667,52.3,,,,
6,241,----,Amsterdam Coenhaven Aws,,,Netherlands,6,4.86666666666667,52.4166666666667,,,,
6,242,EHVL,Vlieland,,,Netherlands,6,4.91666666666667,53.25,,,,
6,244,----,Hoorn Aws,,,Netherlands,6,5.05,52.65,,,,
6,247,----,Bloemendaal,,,Netherlands,6,4.55,52.4166666666667,,,,
6,248,----,Wudenes,,,Netherlands,6,5.16666666666667,52.6333333333333,,,,
6,250,----,Terschelling,,,Netherlands,6,5.21666666666667,53.3666666666667,,,,
6,251,----,Terschelling Hoorn,,,Netherlands,6,5.35,53.3833333333333,,,,
6,252,----,K13-A,,,Netherlands,6,3.21666666666667,53.2166666666667,,,,
6,253,----,Auk-Alfa,,,Netherlands,6,2.06666666666667,56.4,,,,
6,254,----,Meetpost Noordwuk,,,Netherlands,6,4.3,52.2666666666667,,,,
6,255,----,Noordeluke Zeeraaf,,,Netherlands,6,1.15,61.2333333333333,,,,
6,260,EHDB,De Bilt,,,Netherlands,6,5.18333333333333,52.1,,,,
6,265,EHSB,Soesterberg,,,Netherlands,6,5.28333333333333,52.1333333333333,,,,
6,267,----,Stavoren Aws,,,Netherlands,6,5.35,52.8833333333333,,,,
6,268,----,Houtrib,,,Netherlands,6,5.43333333333333,52.5333333333333,,,,
6,269,EHLE,Lelystad,,,Netherlands,6,5.51666666666667,52.45,,,,
6,270,EHLW,Leeuwarden,,,Netherlands,6,5.76666666666667,53.2166666666667,,,,
6,273,----,Marknesse Aws,,,Netherlands,6,5.88333333333333,52.7,,,,
6,275,EHDL,Deelen,,,Netherlands,6,5.88333333333333,52.0666666666667,,,,
6,277,----,Lauwersoog Aws,,,Netherlands,6,6.2,53.4166666666667,,,,
6,278,----,Heino Aws,,,Netherlands,6,6.26666666666667,52.4333333333333,,,,
6,279,----,Hoogeveen Aws,,,Netherlands,6,6.51666666666667,52.7333333333333,,,,
6,280,EHGG,Groningen Airport Eelde,,,Netherlands,6,6.58333333333333,53.1333333333333,,,,
6,283,----,Hupsel Aws,,,Netherlands,6,6.65,52.0666666666667,,,,
6,285,----,Huibertgat Wp,,,Netherlands,6,6.4,53.5666666666667,,,,
6,286,----,Nieuw Beerta Aws,,,Netherlands,6,7.15,53.2,,,,
6,290,EHTW,Twenthe,,,Netherlands,6,6.9,52.2666666666667,,,,
6,308,----,Cadzand Wp,,,Netherlands,6,3.38333333333333,51.3833333333333,,,,
6,310,----,Vlissingen,,,Netherlands,6,3.6,51.45,,,,
6,312,----,Oosterschelde Wp,,,Netherlands,6,3.6,51.6833333333333,,,,
6,316,----,Schaar Wp,,,Netherlands,6,3.7,51.65,,,,
6,319,----,Westdorpe Aws,,,Netherlands,6,3.9,51.5333333333333,,,,
6,320,----,Le Goeree,,,Netherlands,6,3.66666666666667,51.9333333333333,,,,
6,321,----,Euro Platform,,,Netherlands,6,3.28333333333333,52,,,,
6,323,----,Wilhelminadorp Aws,,,Netherlands,6,3.9,51.5333333333333,,,,
6,330,----,Hoek Van Holland,,,Netherlands,6,4.1,51.9833333333333,,,,
6,331,----,Tholen Wp,,,Netherlands,6,4.13333333333333,51.5166666666667,,,,
6,340,EHWO,Woensdrecht,,,Netherlands,6,4.33333333333333,51.45,,,,
6,343,----,Rotterdam Geulhaven Aws,,,Netherlands,6,4.31666666666667,51.8833333333333,,,,
6,344,EHRD,Rotterdam Airport Zestienhoven,,,Netherlands,6,4.45,51.95,,,,
6,348,----,Cabauw Tower,,,Netherlands,6,4.93333333333333,51.9666666666667,,,,
6,350,EHGR,Gilze-Rijen,,,Netherlands,6,4.93333333333333,51.5666666666667,,,,
6,356,----,Herwijnen Aws,,,Netherlands,6,5.15,51.8666666666667,,,,
6,370,EHEH,Eindhoven,,,Netherlands,6,5.41666666666667,51.45,,,,
6,375,EHVK,Volkel,,,Netherlands,6,5.7,51.65,,,,
6,379,----,Oost Maarland Aws,,,Netherlands,6,5.71666666666667,50.8,,,,
6,380,EHBK,Maastricht Airport Zuid Limburg,,,Netherlands,6,5.78333333333333,50.9166666666667,,,,
6,391,----,Arcen Aws,,,Netherlands,6,6.2,51.5,,,,
6,400,EBFN,Koksijde,,,Belgium,6,2.65,51.0833333333333,,,,Veurne
6,407,EBOS,Oostende Airport ,,,Belgium,6,2.86666666666667,51.2,,,,Oostende
6,408,----,Oostende Pier ,,,Belgium,6,2.91666666666667,51.2333333333333,,,,Oostende
6,428,EBMT,Munte,,,Belgium,6,3.73333333333333,50.9333333333333,,,,Gent
6,431,EBGT,Gent / Industrie-Zone,,,Belgium,6,3.81666666666667,51.1833333333333,,,,Gent
6,432,EBCV,Chievres,,,Belgium,6,3.83333333333333,50.5666666666667,,,,Mons
6,447,----,Uccle,,,Belgium,6,4.35,50.8,,,,Brussel-Hoofstad
6,448,EBMB,Melsbroek Bel-Afb ,,,Belgium,6,4.5,50.9,,,,Halle-Vilvoorde
6,449,EBCI,Charleroi / Gosselies,,,Belgium,6,4.45,50.4666666666667,,,,Charleroi
6,450,EBAW,Antwerpen / Deurne,,,Belgium,6,4.46666666666667,51.2,,,,Antwerpen
6,451,EBBR,Bruxelles National,,,Belgium,6,4.53333333333333,50.9,,,,Halle-Vilvoorde
6,452,EBBT,Brasschaat,,,Belgium,6,4.5,51.3333333333333,,,,Antwerpen
6,456,EBFS,Florennes,,,Belgium,6,4.65,50.2333333333333,,,,Philippeville
6,458,EBBE,Beauvechain,,,Belgium,6,4.76666666666667,50.75,,,,Nivelles
6,462,EBWE,Weelde Military ,,,Belgium,6,5,51.4166666666667,,,,Turnhout
6,463,EBTN,Goetsenhoven,,,Belgium,6,4.95,50.7833333333333,,,,Leuven
6,465,EBDT,Schaffen,,,Belgium,6,5.06666666666667,51,,,,Leuven
6,467,EBBX,Bertrix Bel-Afb ,,,Belgium,6,5.21666666666667,49.9,,,,Neufchâteau
6,470,EBST,Sint-Truiden,,,Belgium,6,5.2,50.8,,,,Hasselt
6,473,----,Sinsin,,,Belgium,6,5.25,50.2666666666667,,,,Dinant
6,476,EBSU,St-Hubert,,,Belgium,6,5.4,50.0333333333333,,,,Neufchâteau
6,478,EBLG,Bierset,,,Belgium,6,5.45,50.65,,,,Liège
6,479,EBBL,Kleine Brogel,,,Belgium,6,5.46666666666667,51.1666666666667,,,,Maaseik
6,480,----,Meix-Devant-Virton,,,Belgium,6,5.48333333333333,49.6,,,,Virton
6,481,EBZW,Genk,,,Belgium,6,5.5,50.9333333333333,,,,Hasselt
6,490,EBSP,Spa / La Sauveniere,,,Belgium,6,5.91666666666667,50.4833333333333,,,,Verviers
6,496,EBLB,Elsenborn,,,Belgium,6,6.18333333333333,50.4666666666667,,,,Verviers
6,585,----,Clervaux,,,Luxembourg,6,6.01666666666667,50.05,,,,
6,589,----,Luxembourg Beggen ,,,Luxembourg,6,6.13333333333333,49.65,,,,
6,590,ELLX,Luxembourg / Luxembourg,,,Luxembourg,6,6.21666666666667,49.6166666666667,,,,
6,597,----,Echternach,,,Luxembourg,6,6.45,49.8,,,,
6,604,LSGN,Neuchatel,,,Switzerland,6,6.95,47,,,,
6,610,LSMP,Payerne,,,Switzerland,6,6.95,46.8166666666667,,,,
6,612,----,La Chaux-De-Fonds,,,Switzerland,6,6.8,47.0833333333333,,,,
6,616,----,Fahy,,,Switzerland,6,6.95,47.4333333333333,,,,
6,628,----,Plaffeien-Oberschrot,,,Switzerland,6,7.26666666666667,46.75,,,,
6,630,----,Bern-Belp,,,Switzerland,6,7.5,46.9166666666667,,,,
6,632,LSZG,Grenchen,,,Switzerland,6,7.41638888888889,47.1813888888889,,,,
6,639,----,Napf,,,Switzerland,6,7.93333333333333,47,,,,
6,642,----,Langenbruck,,,Switzerland,6,7.76666666666667,47.35,,,,
6,643,----,Wynau,,,Switzerland,6,7.78333333333333,47.25,,,,
6,649,----,Laufenburg,,,Switzerland,6,8.05,47.55,,,,
6,652,----,Mettlen,,,Switzerland,6,8.33333333333333,47.1166666666667,,,,
6,653,----,Beromuenster,,,Switzerland,6,8.16666666666667,47.2,,,,
6,654,----,Brugg-Wildegg,,,Switzerland,6,8.16666666666667,47.4666666666667,,,,
6,657,----,Giswil,,,Switzerland,6,8.16666666666667,46.8166666666667,,,,
6,658,----,Buochs,,,Switzerland,6,8.38333333333333,46.9833333333333,,,,
6,660,----,Zurich Town / Ville.,,,Switzerland,6,8.56666666666667,47.3833333333333,,,,
6,661,----,Albis,,,Switzerland,6,8.51666666666667,47.2833333333333,,,,
6,662,----,Trasadingen,,,Switzerland,6,8.43333333333333,47.6666666666667,,,,
6,669,----,Laegern,,,Switzerland,6,8.4,47.4833333333333,,,,
6,670,LSZH,Zurich-Kloten,,,Switzerland,6,8.53333333333333,47.4833333333333,,,,
6,672,----,Altdorf,,,Switzerland,6,8.63333333333333,46.8666666666667,,,,
6,680,----,Saentis,,,Switzerland,6,9.35,47.25,,,,
6,681,----,Saint Gallen,,,Switzerland,6,9.4,47.4333333333333,,,,
6,684,----,Weesen,,,Switzerland,6,9.1,47.1333333333333,,,,
6,689,----,Hoernli,,,Switzerland,6,8.95,47.3666666666667,,,,
6,690,----,Altenrhein-Flugplatz,,,Switzerland,6,9.38333333333333,47.4833333333333,,,,
6,691,LSZR,Saint Gallen-Altenrhein,,,Switzerland,6,9.56194444444445,47.485,,,,
6,700,LSGG,Geneve-Cointrin,,,Switzerland,6,6.13333333333333,46.25,,,,
6,702,----,La Dole,,,Switzerland,6,6.1,46.4333333333333,,,,
6,703,----,La Cure,,,Switzerland,6,6.08333333333333,46.4666666666667,,,,
6,710,LSGL,Lausanne,,,Switzerland,6,6.61666666666667,46.55,,,,
6,712,----,Aigle,,,Switzerland,6,6.91666666666667,46.3333333333333,,,,
6,718,----,Savatan,,,Switzerland,6,7.01666666666667,46.2,,,,
6,719,----,Le Grand Saint-Bernard Douane,,,Switzerland,6,7.16666666666667,45.8666666666667,,,,Valle d'Aosta / Vallée d'Aoste
6,720,LSGS,Sion,,,Switzerland,6,7.33333333333333,46.2166666666667,,,,
6,721,----,Fionnay,,,Switzerland,6,7.31666666666667,46.0333333333333,,,,
6,724,----,Montana,,,Switzerland,6,7.48333333333333,46.3166666666667,,,,
6,726,----,Gemmi,,,Switzerland,6,7.61666666666667,46.4,,,,
6,730,----,Jungfraujoch,,,Switzerland,6,7.98333333333333,46.55,,,,
6,731,----,Wimmis,,,Switzerland,6,7.65,46.7666666666667,,,,
6,734,----,Interlaken,,,Switzerland,6,7.86666666666667,46.6666666666667,,,,
6,742,----,Simplon,,,Switzerland,6,8.03333333333333,46.25,,,,
6,743,----,Ernen,,,Switzerland,6,8.13333333333333,46.4,,,,
6,750,----,Guetsch,,,Switzerland,6,8.61666666666667,46.65,,,,
6,753,----,Piotta,,,Switzerland,6,8.68333333333333,46.5166666666667,,,,
6,756,----,Comprovasco,,,Switzerland,6,8.93333333333333,46.4666666666667,,,,
6,759,----,Cimetta,,,Switzerland,6,8.8,46.2,,,,
6,760,----,Locarno-Monti,,,Switzerland,6,8.78333333333333,46.1666666666667,,,,
6,762,----,Locarno-Magadino,,,Switzerland,6,8.88333333333333,46.1666666666667,,,,
6,770,LSZA,Lugano,,,Switzerland,6,8.96666666666667,46,,,,
6,771,----,Stabio,,,Switzerland,6,8.93333333333333,45.85,,,,Varese
6,775,----,Lugano-Agno,,,Switzerland,6,8.9,46,,,,
6,781,----,Tavanasa,,,Switzerland,6,9.05,46.75,,,,
6,782,----,Disentis,,,Switzerland,6,8.85,46.7,,,,
6,783,----,San Bernardino,,,Switzerland,6,9.18333333333333,46.4666666666667,,,,
6,786,----,Chur-Ems,,,Switzerland,6,9.53333333333333,46.8666666666667,,,,
6,789,----,Loebbia,,,Switzerland,6,9.66666666666667,46.3833333333333,,,,
6,790,----,St. Moritz,,,Switzerland,6,9.85,46.5,,,,
6,791,----,Corvatsch,,,Switzerland,6,9.81666666666667,46.4166666666667,,,,
6,792,----,Samedam-Flugplatz,,,Switzerland,6,9.88333333333333,46.5333333333333,,,,
6,794,----,Robbia,,,Switzerland,6,10.0666666666667,46.35,,,,
6,990,----,Vaduz,,,Liechtenstein,6,9.51666666666667,47.1333333333333,,,,
7,2,----,Boulogne,,,France,6,1.6,50.7333333333333,,,,Passo de Calais
7,3,LFAT,Le Touquet,,,France,6,1.61666666666667,50.5166666666667,,,,Passo de Calais
7,5,LFOI,Abbeville,,,France,6,1.83333333333333,50.1333333333333,,,,Somme
7,10,----,Dunkerque,,,France,6,2.33333333333333,51.05,,,,Norte
7,15,LFQQ,Lille,,,France,6,3.1,50.5666666666667,,,,Norte
7,17,LFQI,Cambrai,,,France,6,3.15,50.2166666666667,,,,Norte
7,19,----,Barfleur Point ,,,France,6,-1.26666666666667,49.7,,,,
7,20,----,La Hague,,,France,6,-1.93333333333333,49.7166666666667,,,,Manche
7,22,----,Vigite Du Haumet,,,France,6,-1.5,49.65,,,,Manche
7,24,LFRC,Cherbourg / Maupertus,,,France,6,-1.46666666666667,49.65,,,,Manche
7,27,LFRK,Caen,,,France,6,-0.45,49.1833333333333,,,,Calvados
7,28,LFOH,La Heve,,,France,6,0.066666666666667,49.5166666666667,,,,Sena Marítimo
7,29,----,Port En Bessin,,,France,6,-0.766666666666667,49.35,,,,Calvados
7,31,----,Deauville,,,France,6,0.166666666666667,49.3666666666667,,,,Calvados
7,33,LFOS,Vittefleur / St. Vale,,,France,6,0.65,49.8333333333333,,,,Sena Marítimo
7,34,----,Carteret,,,France,6,-1.8,49.3666666666667,,,,
7,37,LFOP,Rouen,,,France,6,1.18333333333333,49.3833333333333,,,,Sena Marítimo
7,38,LFOE,Evreux,,,France,6,1.21666666666667,49.0166666666667,,,,Eure
7,39,----,Valognes,,,France,6,-1.5,49.5166666666667,,,,Manche
7,40,----,Dieppe,,,France,6,1.1,49.9333333333333,,,,Sena Marítimo
7,55,LFOB,Beauvais,,,France,6,2.11666666666667,49.4666666666667,,,,Oise
7,57,LFPC,Creil Fafb ,,,France,6,2.51666666666667,49.25,,,,Oise
7,61,LFOW,Saint-Quentin,,,France,6,3.2,49.8166666666667,,,,Aisne
7,70,LFSR,Reims,,,France,6,4.03333333333333,49.3,,,,Marne
7,75,LFQV,Charleville,,,France,6,4.63333333333333,49.7833333333333,,,,Ardennes
7,90,LFSF,Metz / Frescaty,,,France,6,6.13333333333333,49.0833333333333,,,,Moselle
7,93,LFJL,Metz-Nancy-Lorraine,,,France,6,6.25,48.9833333333333,,,,Moselle
7,100,----,Ouessant,,,France,6,-5.13333333333333,48.4666666666667,,,,
7,103,----,Pointe Du Raz,,,France,6,-4.73333333333333,48.0333333333333,,,,
7,106,LFRJ,Landivisiau,,,France,6,-4.15,48.5166666666667,,,,Finistère
7,107,----,Brignogan,,,France,6,-4.33333333333333,48.6833333333333,,,,
7,109,LFRL,Lanveoc Poulmic,,,France,6,-4.43333333333333,48.2833333333333,,,,Finistère
7,110,LFRB,Brest,,,France,6,-4.41666666666667,48.45,,,,Finistère
7,116,----,Ile De Batz,,,France,6,-4.01666666666667,48.75,,,,Finistère
7,120,LFRT,Saint-Brieuc,,,France,6,-2.85,48.5333333333333,,,,Côtes-d'Armor
7,121,----,Brehat,,,France,6,-3,48.85,,,,Côtes-d'Armor
7,125,LFRD,Dinard,,,France,6,-2.06666666666667,48.5833333333333,,,,Ille-et-Vilaine
7,127,----,Grouin De Cancale,,,France,6,-1.85,48.7166666666667,,,,
7,130,LFRN,Rennes,,,France,6,-1.73333333333333,48.0666666666667,,,,Ille-et-Vilaine
7,133,----,Pointe Du Roc,,,France,6,-1.61666666666667,48.8333333333333,,,,
7,134,----,Laval,,,France,6,-0.733333333333333,48.0333333333333,,,,Mayenne
7,139,LFOF,Alencon,,,France,6,0.116666666666667,48.45,,,,Orne
7,140,LFOC,Chateaudun,,,France,6,1.38333333333333,48.05,,,,Eure-et-Loire
7,143,LFOR,Chartres,,,France,6,1.51666666666667,48.4666666666667,,,,Eure-et-Loire
7,145,----,Trappes,,,France,6,2.01666666666667,48.7666666666667,,,,Yvelines
7,146,LFPN,Toussus Le Noble,,,France,6,1.1,48.7666666666667,,,,Eure
7,147,LFPV,Villacoublay,,,France,6,2.2,48.7666666666667,,,,Essonne
7,148,----,Bretigny,,,France,6,2.33333333333333,48.6,,,,Essonne
7,149,LFPO,Paris-Orly,,,France,6,2.4,48.7333333333333,,,,Valle del Marne
7,150,LFPB,Paris / Le Bourget,,,France,6,2.45,48.9666666666667,,,,Valle del Oise
7,153,LFPM,Melun,,,France,6,2.68333333333333,48.6166666666667,,,,Sena y Marne
7,156,----,Paris-Montsouris,,,France,6,2.33333333333333,48.8166666666667,,,,Valle del Marne
7,157,LFPG,Paris-Aeroport Charles De Gaulle,,,France,6,2.53333333333333,49.0166666666667,,,,Valle del Oise
7,168,LFQB,Troyes,,,France,6,4.01666666666667,48.3333333333333,,,,Aube
7,169,LFSI,St-Dizier,,,France,6,4.9,48.6333333333333,,,,Haute-Marne
7,172,----,Loxeville,,,France,6,5.4,48.75,,,,Mosa
7,173,----,Epinal,,,France,6,6.43333333333333,48.2,,,,Vosgos
7,179,LFSL,Toul / Rosieres,,,France,6,5.48333333333333,48.7833333333333,,,,Mosa
7,180,LFSN,Nancy / Essey,,,France,6,6.21666666666667,48.6833333333333,,,,Meurthe-et-Moselle
7,181,LFSO,Nancy / Ochey,,,France,6,5.96666666666667,48.5833333333333,,,,Meurthe-et-Moselle
7,182,----,Rechicourt,,,France,6,6.58333333333333,48.7166666666667,,,,Meurthe-et-Moselle
7,190,LFST,Strasbourg,,,France,6,7.63333333333333,48.55,,,,Bas-Rhin
7,197,LFSC,Colmar,,,France,6,7.4,47.9166666666667,,,,Haut-Rhin
7,200,----,Penmarch,,,France,6,-4.36666666666667,47.8,,,,Finistère
7,201,LFRQ,Quimper,,,France,6,-4.16666666666667,47.9666666666667,,,,Finistère
7,203,----,Beg Melen,,,France,6,-3.5,47.65,,,,Morbihan
7,205,LFRH,Lann Bihoue,,,France,6,-3.45,47.7666666666667,,,,Morbihan
7,207,----,Le Talut,,,France,6,-3.21666666666667,47.3,,,,Morbihan
7,210,----,Vannes,,,France,6,-2.75,47.6333333333333,,,,Morbihan
7,217,LFRZ,St-Nazaire,,,France,6,-2.16666666666667,47.3166666666667,,,,Loire-Atlântico
7,222,LFRS,Nantes,,,France,6,-1.6,47.1666666666667,,,,Loire-Atlântico
7,230,LFRA,Angers,,,France,6,-0.566666666666667,47.5,,,,Maine-et-Loire
7,235,LFRM,Le Mans,,,France,6,0.2,47.9333333333333,,,,Sarthe
7,240,LFOT,Tours,,,France,6,0.716666666666667,47.45,,,,Indre-et-Loire
7,247,LFYR,Romorantin,,,France,6,1.68333333333333,47.3166666666667,,,,Loira y Cher
7,249,LFOJ,Orleans,,,France,6,1.75,47.9833333333333,,,,Loiret
7,255,LFLD,Bourges,,,France,6,2.36666666666667,47.0666666666667,,,,Cher
7,257,----,Avord,,,France,6,2.65,47.05,,,,Cher
7,260,LFQG,Nevers,,,France,6,3.1,47,,,,Nièvre
7,265,LFLA,Auxerre,,,France,6,3.55,47.8,,,,Yonne
7,270,----,Chateau-Chinon Automated Reporting Station ,,,France,6,3.93333333333333,47.0666666666667,,,,Nièvre
7,276,LFQH,Chatillon-Sur-Seine,,,France,6,4.55,47.85,,,,Côte-d'Or
7,280,LFSD,Dijon,,,France,6,5.08333333333333,47.2666666666667,,,,Côte-d'Or
7,283,----,Langres,,,France,6,5.31666666666667,47.8333333333333,,,,Haute-Marne
7,288,LFSA,Besancon,,,France,6,5.98333333333333,47.25,,,,Doubs
7,292,LFSX,Luxeuil,,,France,6,6.35,47.7833333333333,,,,Haute-Saône
7,295,LFSQ,Belfort,,,France,6,6.86666666666667,47.6333333333333,,,,Território de Belfort
7,299,LFSB,Bale-Mulhouse,,,France,6,7.51666666666667,47.6,,,,Haut-Rhin
7,300,----,St-Sauveur,,,France,6,-2.33333333333333,46.7,,,,Vendée
7,306,LFRI,La Roche-Sur-Yon,,,France,6,-1.38333333333333,46.7,,,,Vendée
7,314,----,Chassiron,,,France,6,-1.41666666666667,46.0333333333333,,,,
7,315,LFBH,La Rochelle,,,France,6,-1.15,46.15,,,,Charente-Maritime
7,330,LFBN,Niort,,,France,6,-0.4,46.3166666666667,,,,Deux-Sèvres
7,335,LFBI,Poitiers,,,France,6,0.316666666666667,46.5833333333333,,,,Vienne
7,354,LFLX,Chateauroux,,,France,6,1.71666666666667,46.85,,,,Indre
7,374,LFLV,Vichy,,,France,6,3.4,46.1666666666667,,,,Allier
7,379,LFLN,Saint-Yan,,,France,6,4.01666666666667,46.4166666666667,,,,Saône-et-Loire
7,382,----,Mont Saint Vincent,,,France,6,4.43333333333333,46.65,,,,Saône-et-Loire
7,385,LFLM,Macon,,,France,6,4.8,46.3,,,,Saône-et-Loire
7,390,----,Lons-Le-Saunier,,,France,6,5.51666666666667,46.6833333333333,,,,Jura
7,394,----,Morbier,,,France,6,6.03333333333333,46.5666666666667,,,,Jura
7,400,----,La Coubre,,,France,6,-1.23333333333333,45.7,,,,Charente-Maritime
7,412,LFBG,Cognac,,,France,6,-0.316666666666667,45.6666666666667,,,,Charente
7,428,LFBX,Perigueux,,,France,6,0.816666666666667,45.2,,,,Dordoña
7,434,LFBL,Limoges,,,France,6,1.18333333333333,45.8666666666667,,,,Haute-Vienne
7,438,LFBV,Brive,,,France,6,1.46666666666667,45.15,,,,Corrèze
7,460,LFLC,Clermont-Ferrand,,,France,6,3.16666666666667,45.7833333333333,,,,Puy-de-Dôme
7,471,LFHP,Le Puy,,,France,6,3.76666666666667,45.0833333333333,,,,Haute-Loire
7,475,LFMH,St-Etienne Boutheon,,,France,6,4.3,45.5333333333333,,,,Loire
7,477,----,Les Sauvages Automated Reporting Station ,,,France,6,4.38333333333333,45.9333333333333,,,,Ródano
7,480,LFLY,Lyon / Bron,,,France,6,4.95,45.7166666666667,,,,Ródano
7,481,LFLL,Lyon / Satolas,,,France,6,5.08333333333333,45.7333333333333,,,,Ródano
7,482,LFXA,Amberieu,,,France,6,5.33333333333333,45.9833333333333,,,,Ain
7,486,LFLS,Grenoble / St. Geoirs,,,France,6,5.33333333333333,45.3666666666667,,,,Isère
7,491,LFLB,Chambery / Aix-Les-Bains,,,France,6,5.88333333333333,45.65,,,,Savoie
7,496,----,Modane Avrieux,,,France,6,6.71666666666667,45.2166666666667,,,,Savoie
7,497,----,Bourg-St-Maurice,,,France,6,6.76666666666667,45.6166666666667,,,,Savoie
7,500,----,Cap Ferret,,,France,6,-1.25,44.6333333333333,,,,Gironde
7,502,LFBC,Cazaux,,,France,6,-1.13333333333333,44.5333333333333,,,,Gironde
7,503,LFBS,Biscarosse,,,France,6,-1.25,44.4333333333333,,,,Landes
7,510,LFBD,Bordeaux / Merignac,,,France,6,-0.7,44.8333333333333,,,,Gironde
7,524,LFBA,Agen,,,France,6,0.6,44.1833333333333,,,,Lot-et-Garonne
7,530,LFBE,Bergerac,,,France,6,0.516666666666667,44.8166666666667,,,,Dordoña
7,535,----,Gourdon,,,France,6,1.4,44.75,,,,Lot
7,549,LFLW,Aurillac,,,France,6,2.41666666666667,44.9,,,,Cantal
7,552,LFCR,Rodez,,,France,6,2.48333333333333,44.4,,,,Aveyron
7,554,----,Mende,,,France,6,3.45,44.5333333333333,,,,Lozère
7,555,LFIG,Cassagnes-Begonhes,,,France,6,2.51666666666667,44.1833333333333,,,,Aveyron
7,558,----,Millau,,,France,6,3.01666666666667,44.1166666666667,,,,Aveyron
7,560,----,Mont Aigoual,,,France,6,3.58333333333333,44.1166666666667,,,,Gard
7,577,LFLQ,Montelimar,,,France,6,4.73333333333333,44.5833333333333,,,,Drôme
7,579,LFMO,Orange,,,France,6,4.83333333333333,44.1333333333333,,,,Vaucluse
7,586,----,Carpentras,,,France,6,5.05,44.0833333333333,,,,Vaucluse
7,587,----,Lus-La-Croix-Haute,,,France,6,5.71666666666667,44.6833333333333,,,,Drôme
7,588,LFMX,St-Auban-Sur-Durance,,,France,6,6,44.0666666666667,,,,Alpes-de-Haute-Provence
7,591,----,Embrun,,,France,6,6.5,44.5666666666667,,,,Hautes-Alpes
7,593,----,Briancon,,,France,6,6.65,44.9166666666667,,,,Hautes-Alpes
7,600,----,Socoa,,,France,6,-1.68333333333333,43.4,,,,
7,602,LFBZ,Biarritz,,,France,6,-1.53333333333333,43.4666666666667,,,,Pyrénées-Atlantiques
7,603,LFBY,Dax,,,France,6,-1.06666666666667,43.6833333333333,,,,Landes
7,607,LFBM,Mont-De-Marsan,,,France,6,-0.5,43.9166666666667,,,,Landes
7,610,LFBP,Pau,,,France,6,-0.416666666666667,43.3833333333333,,,,Pyrénées-Atlantiques
7,621,LFBT,Tarbes Ossun Lourdes,,,France,6,0,43.1833333333333,,,,Hautes-Pyrénées
7,622,LFDH,Auch,,,France,6,0.6,43.6833333333333,,,,Gers
7,627,LFCG,St-Girons,,,France,6,1.1,43,,,,Ariège
7,630,LFBO,Toulouse / Blagnac,,,France,6,1.36666666666667,43.6333333333333,,,,Haute-Garonne
7,631,LFBF,Toulouse / Francazal,,,France,6,1.36666666666667,43.5333333333333,,,,Haute-Garonne
7,632,LFCI,Albi,,,France,6,2.11666666666667,43.9166666666667,,,,Tarn
7,635,LFMK,Carcassonne,,,France,6,2.31666666666667,43.2166666666667,,,,Aude
7,641,----,Sete,,,France,6,3.68333333333333,43.4,,,,Hérault
7,643,LFMT,Montpellier,,,France,6,3.96666666666667,43.5833333333333,,,,Hérault
7,645,LFME,Nimes / Courbessac,,,France,6,4.4,43.8666666666667,,,,Gard
7,646,LFTW,Nimes / Garons,,,France,6,4.41666666666667,43.75,,,,Gard
7,647,LFMI,Istres,,,France,6,4.93333333333333,43.5166666666667,,,,Bouches-du-Rhône
7,648,LFMY,Salon,,,France,6,5.1,43.6,,,,Bouches-du-Rhône
7,649,LFMA,Aix Les Milles,,,France,6,5.36666666666667,43.5,,,,Bouches-du-Rhône
7,650,LFML,Marseille / Marignane,,,France,6,5.23333333333333,43.45,,,,Bouches-du-Rhône
7,652,----,Cap Pomegues,,,France,6,5.3,43.2666666666667,,,,
7,653,----,Cap Couronne,,,France,6,5.05,43.3333333333333,,,,Bouches-du-Rhône
7,656,----,Bec De L'Aigle,,,France,6,5.58333333333333,43.1833333333333,,,,Bouches-du-Rhône
7,660,----,Toulon,,,France,6,5.93333333333333,43.1,,,,
7,661,----,Cap Cepet,,,France,6,5.93333333333333,43.0833333333333,,,,Var
7,667,LFTH,Hyeres,,,France,6,6.15,43.1,,,,Var
7,670,----,Porquerolles,,,France,6,6.23333333333333,43,,,,Var
7,675,LFMC,Le Luc,,,France,6,6.38333333333333,43.3833333333333,,,,Var
7,677,----,Cap Camarat,,,France,6,6.68333333333333,43.2,,,,
7,678,----,Toulon / Ile Du Levant,,,France,6,6.46666666666667,43.0333333333333,,,,Var
7,680,LFTU,St-Raphael,,,France,6,6.75,43.4166666666667,,,,
7,684,LFMD,Cannes,,,France,6,6.95,43.55,,,,Alpes-Maritimes
7,688,----,La Garoupe,,,France,6,7.13333333333333,43.5666666666667,,,,Alpes-Maritimes
7,690,LFMN,Nice,,,France,6,7.2,43.65,,,,
7,695,----,Cap Ferrat,,,France,6,7.33333333333333,43.6833333333333,,,,Alpes-Maritimes
7,738,----,Les Escaldes,,,France,6,1.98333333333333,42.4833333333333,,,,Gérone
7,740,----,Ste Leocadie,,,France,6,2,42.45,,,,Gérone
7,747,LFMP,Perpignan,,,France,6,2.86666666666667,42.7333333333333,,,,Pyrénées-Orientales
7,749,----,Cap Bear,,,France,6,3.13333333333333,42.5166666666667,,,,Pyrénées-Orientales
7,752,----,La Parata,,,France,6,8.61666666666667,41.9166666666667,,,,Córsega do Sul
7,753,----,Ile Rousse,,,France,6,8.91666666666667,42.6333333333333,,,,Haute-Corse
7,754,LFKC,Calvi,,,France,6,8.8,42.5333333333333,,,,Haute-Corse
7,761,LFKJ,Ajaccio,,,France,6,8.8,41.9166666666667,,,,Córsega do Sul
7,765,LFKS,Solenzara,,,France,6,9.4,41.9166666666667,,,,Haute-Corse
7,768,----,La Chiappa,,,France,6,9.36666666666667,41.6,,,,
7,770,----,Pertusato,,,France,6,9.18333333333333,41.3666666666667,,,,Córsega do Sul
7,780,LFKF,Figari,,,France,6,9.1,41.5,,,,Córsega do Sul
7,785,----,Cap Corse,,,France,6,9.36666666666667,43,,,,Haute-Corse
7,790,LFKB,Bastia,,,France,6,9.48333333333333,42.55,,,,Haute-Corse
7,791,----,Cap Sagro,,,France,6,9.48333333333333,42.8,,,,Haute-Corse
8,1,----,La Coruna,,,Spain,6,-8.41666666666667,43.3666666666667,,,,La Coruña
8,2,LECO,La Coruna / Alvedro,,,Spain,6,-8.38333333333333,43.3,,,,La Coruña
8,3,----,Montefaro,,,Spain,6,-8.28333333333333,43.45,,,,La Coruña
8,5,----,El Ferrol,,,Spain,6,-8.23333333333333,43.4833333333333,,,,La Coruña
8,8,----,Lugo / Rozas,,,Spain,6,-7.45,43.1166666666667,,,,Lugo
8,11,LEAS,Asturias / Aviles,,,Spain,6,-6.03333333333333,43.55,,,,Astúrias
8,14,----,Gijon,,,Spain,6,-5.63333333333333,43.5333333333333,,,,Astúrias
8,15,----,Oviedo,,,Spain,6,-5.86666666666667,43.35,,,,Astúrias
8,21,LEXJ,Santander / Parayas,,,Spain,6,-3.81666666666667,43.4333333333333,,,,
8,23,----,Santander,,,Spain,6,-3.81666666666667,43.4666666666667,,,,Cantabrique
8,25,LEBB,Bilbao / Sondica,,,Spain,6,-2.93333333333333,43.3,,,,Vizcaya
8,27,----,San Sebastian / Igueldo,,,Spain,6,-2.05,43.3,,,,Guipúzcoa
8,29,LESO,San Sebastian / Fuenterrabia,,,Spain,6,-1.8,43.35,,,,Guipúzcoa
8,42,LEST,Santiago / Labacolla,,,Spain,6,-8.43333333333333,42.9,,,,La Coruña
8,43,----,Marin,,,Spain,6,-8.7,42.4,,,,
8,44,----,Pontevedra,,,Spain,6,-8.61666666666667,42.4333333333333,,,,Pontevedra
8,45,LEVX,Vigo / Peinador,,,Spain,6,-8.63333333333333,42.2166666666667,,,,Pontevedra
8,46,----,Vigo,,,Spain,6,-8.75,42.2333333333333,,,,
8,48,----,Orense,,,Spain,6,-7.86666666666667,42.3333333333333,,,,Ourense
8,53,----,Ponferrada,,,Spain,6,-6.58333333333333,42.5333333333333,,,,León
8,55,LELN,Leon / Virgen Del Camino,,,Spain,6,-5.65,42.5833333333333,,,,León
8,75,LEBG,Burgos / Villafria,,,Spain,6,-3.63333333333333,42.3666666666667,,,,Burgos
8,80,LEVT,Vitoria,,,Spain,6,-2.71666666666667,42.8833333333333,,,,Álava
8,84,LELO,Logrono / Agoncillo,,,Spain,6,-2.33333333333333,42.45,,,,La Rioja
8,85,LEPP,Pamplona / Noain,,,Spain,6,-1.63333333333333,42.7666666666667,,,,Navarre
8,87,----,Bardenas Reales,,,Spain,6,-1.45,42.2,,,,Navarre
8,94,----,Huesca / Monflorite,,,Spain,6,-0.333333333333333,42.0833333333333,,,,Huesca
8,112,----,Talar,,,Spain,6,0.866666666666667,42.2,,,,Lérida
8,117,----,La Molina,,,Spain,6,1.93333333333333,42.3333333333333,,,,Gérone
8,130,----,Zamora,,,Spain,6,-5.75,41.5,,,,Zamora
8,140,LEVD,Valladolid / Villanubla,,,Spain,6,-4.85,41.7166666666667,,,,Valladolid
8,141,----,Valladolid,,,Spain,6,-4.76666666666667,41.65,,,,Valladolid
8,148,----,Soria,,,Spain,6,-2.46666666666667,41.7666666666667,,,,Sória
8,157,----,Daroca,,,Spain,6,-1.41666666666667,41.1166666666667,,,,Zaragoza
8,160,LEZG,Zaragoza / Aeropuerto,,,Spain,6,-1.01666666666667,41.6666666666667,,,,Zaragoza
8,171,----,Lerida,,,Spain,6,0.633333333333333,41.6166666666667,,,,Lérida
8,175,LERS,Reus / Aeropuerto,,,Spain,6,1.16666666666667,41.15,,,,Tarragone
8,181,LEBL,Barcelona / Aeropuerto,,,Spain,6,2.06666666666667,41.2833333333333,,,,Barcelone
8,184,LEGE,Gerona / Costa Brava,,,Spain,6,2.76666666666667,41.9,,,,Gérone
8,202,LESA,Salamanca / Matacan,,,Spain,6,-5.5,40.95,,,,Salamanque
8,210,----,Avila,,,Spain,6,-4.7,40.65,,,,Ávila
8,213,----,Segovia,,,Spain,6,-4.11666666666667,40.95,,,,Ségovie
8,215,----,Navacerrada,,,Spain,6,-4.01666666666667,40.7833333333333,,,,Ségovie
8,219,LECV,Madri-Colmenar,,,Spain,6,-3.73333333333333,40.65,,,,Madrid
8,220,----,Madrid / C. Universitaria,,,Spain,6,-3.71666666666667,40.45,,,,Madrid
8,221,LEMD,Madrid / Barajas,,,Spain,6,-3.55,40.45,,,,Madrid
8,222,----,Madrid,,,Spain,6,-3.68333333333333,40.4166666666667,,,,Madrid
8,223,LEVS,Madrid / Cuatro Vientos,,,Spain,6,-3.78333333333333,40.3833333333333,,,,Madrid
8,224,LEGT,Madrid / Getafe,,,Spain,6,-3.71666666666667,40.3,,,,Madrid
8,226,----,Guadalajara,,,Spain,6,-3.16666666666667,40.6666666666667,,,,Guadalajara
8,227,LETO,Madrid / Torrejon,,,Spain,6,-3.45,40.4833333333333,,,,Madrid
8,231,----,Cuenca,,,Spain,6,-2.13333333333333,40.0666666666667,,,,Cuenca
8,232,----,Molina De Aragon,,,Spain,6,-1.88333333333333,40.85,,,,Guadalajara
8,233,LECH,Calamocha,,,Spain,6,-1.3,40.9333333333333,,,,Teruel
8,235,----,Teruel,,,Spain,6,-1.11666666666667,40.35,,,,Teruel
8,238,----,Tortosa,,,Spain,6,0.5,40.8166666666667,,,,Tarragone
8,261,----,Caceres,,,Spain,6,-6.33333333333333,39.4666666666667,,,,Cáceres
8,272,----,Toledo,,,Spain,6,-4.05,39.8833333333333,,,,Tolède
8,280,LEAB,Albacete / Los Llanos,,,Spain,6,-1.85,38.95,,,,Albacete
8,284,LEVC,Valencia / Aeropuerto,,,Spain,6,-0.466666666666667,39.5,,,,Valência
8,285,----,Valencia,,,Spain,6,-0.383333333333333,39.4833333333333,,,,Valência
8,286,----,Castellon,,,Spain,6,-0.066666666666667,39.95,,,,Castellón/Castelló
8,301,----,Palma De Mallorca,,,Spain,6,2.61666666666667,39.55,,,,Îles Baléares
8,306,LEPA,Palma De Mallorca / Son San Juan,,,Spain,6,2.73333333333333,39.55,,,,Îles Baléares
8,314,LEMH,Menorca / Mahon,,,Spain,6,4.23333333333333,39.8666666666667,,,,Îles Baléares
8,330,LEBZ,Badajoz / Talavera La Real,,,Spain,6,-6.81666666666667,38.8833333333333,,,,Badajoz
8,335,LEHI,Hinojosa Del Duque,,,Spain,6,-5.11666666666667,38.5166666666667,,,,Córdoba
8,348,----,Ciudad Real,,,Spain,6,-3.91666666666667,38.9833333333333,,,,Ciudad Real
8,359,----,Alicante,,,Spain,6,-0.5,38.3666666666667,,,,Alicante
8,360,LEAL,Alicante / El Altet,,,Spain,6,-0.55,38.2833333333333,,,,Alicante
8,373,LEIB,Ibiza / Es Codola,,,Spain,6,1.38333333333333,38.8666666666667,,,,Îles Baléares
8,383,----,Huelva,,,Spain,6,-6.91666666666667,37.2833333333333,,,,Huelva
8,391,LEZL,Sevilla / San Pablo,,,Spain,6,-5.9,37.4166666666667,,,,Seville
